location_code,eatInPrice,eatOutPrice,shopCode,shopName,lat,long
5456,1.2,1.2,5456,"Paisley, Paisley Central RP, 57 Rnfrw Rd",55.85069,-4.419851
1946,1.2,1.2,1946,"Wandsworth, 75 Southside SC",51.45508961,-0.194265381
5006,1.2,1.2,5006,"Aberdeen, U21 Westhill SC",57.15387064,-2.279199817
2239,1.2,1.2,2239,"Netherfield, U1 Victoria BP",52.96213558,-1.067472205
3582,1.2,1.2,3582,"Motherwell, Windmillhill St",55.7826718,-3.9795302
5905,1.2,1.2,5905,"Windsor, 99 Peascod St",51.48117031,-0.611049511
5840,1.2,1.2,5840,"Milton Keynes, Centre:MK, 160 Mdsmr Arc",52.04417491,-0.752492096
1803,1.2,1.2,1803,"Rosyth, UA Backmarsh Rd",56.03699084,-3.426522583
5513,1.4,1.4,5513,"Mansfield, U2 Southwll Rd Wst Drive Thru",53.127339139399,-1.14829636457
0341,1.2,1.2,0341,"Wombwell, 50 High St",53.52345755,-1.399728966
1383,1.2,1.2,1383,"Market Harborough, U5 St Marys Pl SC",52.47744541,-0.919128875
5790,1.4,1.4,5790,"Port Talbot, Baglan Bay RP Drive Thru",51.60278863,-3.810856483
2055,1.2,1.2,2055,"Banbury, 30 Castle Quay SC",52.06329488,-1.335014895
0592,1.2,1.2,0592,"Cardiff, 205 Cowbridge Rd Est",51.48136287,-3.198337927
1696,1.2,1.2,1696,"Leatherhead, 4 High St",51.29522156,-0.329105619
0984,1.2,1.2,0984,"Hayes, 25 Station Rd",51.50643439,-0.41873906
1442,1.2,1.2,1442,"Coalville, U17 Belvoir SC",52.7240291081,-1.372691155274
5952,1.45,1.45,5952,"Coventry, U3 Coventry Railway Stn",52.401322584003,-1.514720492059
0253,1.2,1.2,0253,"Dewsbury, 3 Foundry St",53.69218905,-1.628251224
1911,1.2,1.2,1911,"Aberdeen, 4 East Mall",57.144355,-2.096693
2281,1.2,1.2,2281,"Whitburn, 19 West Main St",55.86649367,-3.685452686
5544,1.2,1.2,5544,"Prudhoe, U2A Prudhoe RP",54.96856217,-1.837715845
6368,1.2,1.2,6368,"Middlesbrough, UA1 Cleveland RP",54.5703543439,-1.1815096542
5728,1.45,1.45,5728,"London, U43B Waterloo Station",51.50379,-0.11355
2147,1.2,1.2,2147,"Whitton, 83 High St",51.45094288,-0.357673389
3890,1.2,1.2,3890,"Leigh, U3 Parsonage RP",53.49830514,-2.528383493
2278,1.2,1.2,2278,"Felling, U5 Booth St",54.94980739,-1.569358929
1454,1.2,1.2,1454,"Portsmouth, Quartremaine Rd",50.8215076,-1.052608773
3486,1.2,1.2,3486,"Braehead, U107 Intu SC",55.8766427178,-4.365160768357
5801,1.2,1.2,5801,"Bolton, U6A Burden Park, Manchester Rd",53.56804561,-2.417012636
0750,1.2,1.2,0750,"Newcastle, 95 Grey St",54.97327612,-1.612961661
1842,1.2,1.2,1842,"Anniesland, 1580 Great Western Rd",55.88955743,-4.323161402
5552,1.2,1.2,5552,"Pontypool, U4 Usk Vale Park",51.71452541,-2.997689065
1638,1.2,1.2,1638,"Workington, Washington Square SC",54.64344,-3.54573
1268,1.2,1.2,1268,"Middlesbrough, 12 Gilkes St",54.575485,-1.238041
1792,1.2,1.2,1792,"Swindon, 10 Havelock Sq",51.56055,-1.78452
6057,1.2,1.2,6057,Greggs @ Tesco Leicester Hamilton,52.65292,-1.06991
0029,1.2,1.2,0029,"Darlington, 19 High Row",54.5248413,-1.555725615
2444,1.2,1.2,2444,"Sudbury, 5 Market Hill",52.03842439,0.729837515
1287,1.2,1.2,1287,"Southampton, 8 East St",50.90185592,-1.403222967
1053,1.2,1.2,1053,"Seacroft, 149 South Parkway",53.81632494,-1.469180129
5155,1.2,1.2,5155,"Blantyre, U8 Clydeview SC",55.7924302,-4.088619596
3828,1.2,1.2,3828,"London, 243 Whitechapel Rd",51.51915071,-0.060929509
5856,1.2,1.2,5856,"Poole, 18 Towngate SC, Falkland Sq",50.718558701675,-1.981797195242
1546,1.2,1.2,1546,"Epsom, 48 High St",51.3338035,-0.266048407
0584,1.2,1.2,0584,"Caldicot, 29 Newport Rd",51.59119937,-2.752042857
5786,1.2,1.2,5786,"Frome, U4 Enterprise House, Wessex Flds",51.21712355,-2.332020962
6000,1.2,1.2,6000,"Norwich, 48 London St",52.62957755,1.295805974
0992,1.2,1.2,0992,"Kilburn, 79 High Rd",51.53784493,-0.193510073
1680,1.2,1.2,1680,"Swansea, U6F Swansea EP",51.65849966,-3.90861481
6145,1.2,1.2,6145,"Hereford, 214 The Straight Mile",52.039480000755,-2.69358880182
3717,1.2,1.2,3717,"Portsmouth, U6 Portsmouth RP",50.84660039,-1.095763196
5293,1.2,1.2,5293,"Galashiels, 25 Market St",55.61524555,-2.805949018
0091,1.2,1.2,0091,"South Shields, 285 Prince Edward Rd",54.9720125,-1.408979931
2106,1.2,1.2,2106,"Luton, 8 Nursery Pde, Marsh Rd",51.90502742,-0.453656665
3500,1.2,1.2,3500,"Dumfries, 9 Castle St",55.06996488,-3.612718366
1497,1.2,1.2,1497,"Crawley, 26 The Martletts",51.11414845,-0.186922424
1182,1.2,1.2,1182,"St Ives, 5 The Pavement",52.32358727,-0.073305991
6217,1.2,1.2,6217,Greggs @ Tesco Haverfordwest,51.79848,-4.97748
0793,1.2,1.2,0793,"Hadleigh, 58 High St",52.04374307,0.954111202
1881,1.2,1.2,1881,"Leeds, 126 Gelderd Rd",53.77942453,-1.58231452
1301,1.2,1.2,1301,"Woolwich, 64 Powis St",51.49159114,0.066242614
1751,1.2,1.2,1751,"Bristol, U8 Peterson Ave",51.40479109,-2.598242571
5712,1.45,1.45,5712,"Canary Wharf, U365 Cabot Square West",51.50508,-0.02045
4945,1.2,1.2,4945,"Coleraine, 13 Church St",55.1308927,-6.6681561
5657,1.2,1.2,5657,"Beeston, 201 Queens Rd",52.92478867,-1.206413438
5207,1.2,1.2,5207,"Norwich, 41 Barker St",52.63886738,1.282169358
2038,1.2,1.2,2038,"Yate, U61 Beeches IE",51.54332341,-2.439430047
0005,1.2,1.2,0005,"Benton, 387 Benton Rd",55.00872256,-1.578772975
3557,1.2,1.2,3557,"Derby, U2A Ctrl Hall, East St",52.92146846,-1.474407198
1839,1.2,1.2,1839,"Houghton Le Spring, 36 Newbottle St",54.84388184,-1.471702514
5179,1.2,1.2,5179,"Kingston, 14 Castle St",51.41140618,-0.30171985
0394,1.2,1.2,0394,"Kirkby, 11 Saint Chads Pde",53.481694020148,-2.887182350973
5196,1.2,1.2,5196,"Birmingham, U18B Fox SC, Washwood Hth Rd",52.49416922,-1.819225665
2203,1.2,1.2,2203,"Barnsley, 20 May Day Green",53.55264808,-1.479691838
0117,1.2,1.2,0117,"Wrekenton, 167 High St",54.92515151,-1.57486884
2080,1.2,1.2,2080,"Bradford, 172 Norman Lane",53.82372147,-1.736074477
5745,1.2,1.2,5745,"Worksop, 10 Bridge St",53.30435395,-1.12431172
0814,1.2,1.2,0814,"Luton, 13 Sundon Pk Pde",51.91609215,-0.469707628
0951,1.2,1.2,0951,"Addlestone, 94 Station Rd",51.37143276,-0.488290453
1213,1.2,1.2,1213,"Reading, 10 Queen Victoria St",51.45633283,-0.971798518
0052,1.2,1.2,0052,"Wallington, 86 Woodcote Rd",51.35861734,-0.149773318
0402,1.2,1.2,0402,"Manchester, 539 Stockport Rd",53.45711225,-2.200453068
1985,1.2,1.2,1985,"Coventry, 6 Ironmonger Row",52.40900869,-1.510534671
0697,1.2,1.2,0697,"Upton Park, 380 Green St",51.53598911,0.034993703
5495,1.2,1.2,5495,"Plymouth, U3A Marsh Mills RP",50.39372777,-4.089678926
2350,1.2,1.2,2350,"Camelon, 332 Main St",56.00344376,-3.813785522
3812,1.2,1.2,3812,"Shrewsbury, U1 Shrewsbury BP",52.69033197,-2.722067857
1086,1.2,1.2,1086,"Lancaster Uni, 8 Alexandra Sq",54.01038318,-2.784651492
3541,1.2,1.2,3541,"Keighley, Keighley RP, Hard Ings Rd",53.87501148,-1.905532433
5180,1.2,1.2,5180,"Broxburn, U1 Fairfield SS",55.93518964,-3.447194206
0678,1.2,1.2,0678,"Holloway, 132 Holloway Rd",51.55063526,-0.109250192
0382,1.2,1.2,0382,"Eccles, 12 The Mall",53.483076,-2.336702
1340,1.2,1.2,1340,"Luton, U51 The Mall",51.879330223122,-0.413008131373
0802,1.2,1.2,0802,"Alloa, 8 High St",56.11506712,-3.791537081
2096,1.2,1.2,2096,"Brierley Hill, 240 High St",52.50102847,-2.122478877
0101,1.2,1.2,0101,"Grays, 44 High St",51.47714614,0.322712729
5303,1.2,1.2,5303,"Bury, U1B Pilsworth Rd",53.57646864,-2.275793861
4904,1.2,1.2,4904,"Liversedge, U3b Fountain Crt",53.69769932,-1.698433935
5246,1.2,1.2,5246,"Honiton, U1A Honiton RP, Reme Drive",50.79215369,-3.208357067
0044,1.2,1.2,0044,"Guisborough, 39 Westgate",54.53525041,-1.053244165
1205,1.2,1.2,1205,"Sunderland, U28 The Bridges SC",54.905789632248,-1.384667963342
3668,1.2,1.2,3668,"Reading, 38 Market Place",51.45554874,-0.969826531
1655,1.2,1.2,1655,"Darlington, 289 Yarm Rd",54.52240906,-1.524592317
5092,1.2,1.2,5092,"Whitley Bay, 248 Whitley Rd",55.04228802,-1.445693881
0290,1.2,1.2,0290,"Hunslet, U6 Hunslet District CTR",53.77863582,-1.528701594
5568,1.2,1.2,5568,"Wigston, 29 Leicester Rd",52.58677683,-1.105895513
2307,1.2,1.2,2307,"Kings Lynn, Hansa Rd",52.74161786,0.411315601
5138,1.2,1.2,5138,"York, Monks Cross SP",53.98829762,-1.043941552
1897,1.2,1.2,1897,"Altrincham, 54 George St",53.38744266,-2.350218354
2242,1.2,1.2,2242,"Matlock, U2 Crown CTR",53.13877896,-1.555836812
6201,1.2,1.2,6201,"Wallsend, U3 Cobalt BP",55.02001,-1.50665
1194,1.2,1.2,1194,"Waltham Abbey, 14 Sun St",51.68695219,-0.001642676
0506,1.2,1.2,0506,"Livingston, 72 The Centre",55.884611724888,-3.510493673759
0855,1.2,1.2,0855,"Alton, 56 High St",51.14842922,-0.976243999
1317,1.2,1.2,1317,"Blackwood, 124 High St",51.66608782,-3.195222864
1602,1.2,1.2,1602,"Marton, U3 Marton Estates Sq",54.53111356,-1.199038231
0910,1.2,1.2,0910,"New Addington, 33 Central Pde",51.34157491,-0.014692315
1252,1.2,1.2,1252,"Solihull, Touchwood SC",52.41373884,-1.778664181
5211,1.2,1.2,5211,"Newport, U4 Audley Avenue RP",52.76314553,-2.361216441
0443,1.2,1.2,0443,"Washington, U1 Arndale House SC",54.91301562,-1.522785593
2184,1.2,1.2,2184,"Pentwyn, U3 Pentwyn RP",51.52315885,-3.13952572
5641,1.2,1.2,5641,"Swindon, UT12 Hobley Dr",51.58197219,-1.751508299
5636,1.2,1.2,5636,Greggs @ Tesco Extra Dudley,52.51384,-2.06577
4924,1.2,1.2,4924,"Sutton, 194 High St",51.36579894,-0.19405744
5266,1.2,1.2,5266,"Leicester, U10 Fosse Pk SC, Food Crt",52.59728958,-1.180489515
2059,1.2,1.2,2059,"Bingham, 9 Eaton Pl",52.95224568,-0.953281125
1225,1.2,1.2,1225,"Lincoln, 188 High St",53.22715445,-0.541468145
1675,1.2,1.2,1675,"Peterlee, 1 Cook Way",54.76289709,-1.36916318
0967,1.2,1.2,0967,"Cippenham, 413 Bath Rd",51.51962077,-0.644933128
0988,1.2,1.2,0988,"Hillingdon, 370 Long Lane",51.55081276,-0.448662578
0822,1.2,1.2,0822,"Norwich, 57 St Stephens St",52.62471517,1.291507357
5289,1.2,1.2,5289,"Barry, U1 Briscombe RP, Cardiff Rd",51.41119008,-3.248086581
0121,1.2,1.2,0121,"South Ockendon, 9 Derwent Pde",51.509882279159,0.282742243386
2235,1.2,1.2,2235,"Chelmsley Wood, Ulg Wst Chelmsly Wood SC",52.47963603,-1.739890054
0658,1.2,1.2,0658,"Southend, 67 High St",51.53629719,0.713525576
3561,1.2,1.2,3561,"Coventry, UA2 Island Site, Vanguard Ave",52.40357,-1.55768
1622,1.2,1.2,1622,"Atherstone, 91 Long St",52.57734146,-1.54725053
1272,1.2,1.2,1272,"Tamworth, U20 Ankerside SC",52.63263,-1.69341
1788,1.2,1.2,1788,"Abergavenny, 22 High St",51.822594108906,-3.019035823012
0463,1.2,1.2,0463,"Wythenshawe, U7 The Birtles",53.380410196562,-2.262362620915
0176,1.2,1.2,0176,"Edinburgh, U21 Westside Plaza SC",55.915379778987,-3.28487032499
1767,1.2,1.2,1767,"Leeds, U1 Thorpe Pk",53.79954438,-1.42675021
5677,1.45,1.45,5677,"London, 3 Eastcheap",51.51082673,-0.085271971
0475,1.2,1.2,0475,"Norton, 51 High St",54.58758016,-1.310669178
2448,1.2,1.2,2448,"St Helens, Church Sq SC",53.45227181,-2.736540523
5227,1.2,1.2,5227,"London, 60 Kingsway",51.51652741,-0.119402993
2018,1.2,1.2,2018,"Edinburgh, U10D Newbridge IE",55.935753691033,-3.402446485363
0926,1.2,1.2,0926,"Benfleet, 281 High Rd",51.55363406,0.559285548
1321,1.2,1.2,1321,"Leven, 53 High St",56.194473150297,-2.997093534822
0863,1.2,1.2,0863,"East Bedfont, 382 Staines Rd",51.45365346,-0.429494696
1771,1.2,1.2,1771,"Hull, Ferensway, Paragon Interchange",53.74580772,-0.347813033
0530,1.2,1.2,0530,"Oakengate, Oakengate SC",52.69510128,-2.451840069
0160,1.2,1.2,0160,"Edinburgh, 106 Easter Rd",55.95916526,-3.171527758
1458,1.2,1.2,1458,"Birmingham, U6 Cherry St",52.48052424,-1.897366957
3465,1.2,1.2,3465,"Wolverhampton, U25A Wulfrun SC",52.583204414285,-2.126999271411
2274,1.2,1.2,2274,"Enfield, 8 Church St",51.6520593,-0.0829589
0249,1.2,1.2,0249,"Leeds, Chapel Allerton, 110 Harrogate Rd",53.82923741,-1.537822606
3520,1.4,1.4,3520,"Chelmsley Wood SS, Chester Rd",52.49019231,-1.738237735
6372,1.2,1.2,6372,Greggs @ Tesco Extra Brislington,51.432361676603,-2.555061919091
0971,1.2,1.2,0971,"Croydon, Norfolk House, Wellesley Rd",51.374648182958,-0.096703536099
1399,1.2,1.2,1399,"Wolverhampton, 3 Dudley St",52.58573769,-2.127311155
4898,1.2,1.2,4898,"Llanrumney, 72 Countisbury Ave",51.52136817,-3.11937396
0588,1.2,1.2,0588,"Bury St Edmunds, 11 Abbeygate St",52.24482701,0.713726908
0422,1.2,1.2,0422,"Hetton Le Hole, 15 Front St",54.82113417,-1.452090513
0137,1.2,1.2,0137,"Carluke, U1 Rankin Gait CTR",55.73372407,-3.837216479
5765,1.2,1.2,5765,"Hartlepool, U1A Anchor RP",54.69023,-1.21073
0834,1.2,1.2,0834,"St Neots, 15 Market Sq",52.227904,-0.27089363
2389,1.2,1.2,2389,"Musselburgh, 134 High St",55.94238516,-3.050844141
1819,1.2,1.2,1819,"Worthing, 2 Chapel Rd",50.81206883,-0.370146176
2366,1.2,1.2,2366,"Glasgow, 64 Gordon St",55.86069391,-4.257195844
3625,1.2,1.2,3625,"Rochdale, U2 Kingsway RP",53.61528437,-2.129823044
2034,1.2,1.2,2034,"Armthorpe, Armthorpe SC",53.53615602,-1.057591107
1161,1.2,1.2,1161,"Cleckheaton, 16 Northgate",53.72447176,-1.713660601
1531,1.2,1.2,1531,"Weston Super Mare, 42 Regent St",51.3474555,-2.97832454
5088,1.2,1.2,5088,"Gloucester, U2 Old Log Pond, Bristol Rd",51.8382666,-2.2709778
0770,1.2,1.2,0770,"Northallerton, 185 High St",54.33890226,-1.434153854
5437,1.4,1.4,5437,"Dunstable, U1A, Insignia Park Drive Thru",51.88764122,-0.50418515
1927,1.2,1.2,1927,"Merthyr Tydfl, 21 Chestnut Way",51.76271638,-3.380702885
0265,1.2,1.2,0265,"Halifax, U4 Woolshops SC",53.72341251,-1.858215819
1024,1.2,1.2,1024,"Stockwell, 312 Clapham Rd",51.47076982,-0.124736188
5964,1.2,1.2,5964,"Colchester, 30 Culver St",51.88905725,0.897778703
1474,1.2,1.2,1474,"Rotherham, U15 College Wlk",53.43322223,-1.35647067
6165,1.2,1.2,6165,"Greggs @ Primark Northumberland St, Ncl",54.97646,-1.61242
0818,1.2,1.2,0818,"Melton Mowbray, 26 Market Pl",52.76471355,-0.886802394
3737,1.2,1.2,3737,"Bournemouth, 35 Commercial Rd",50.72044682,-1.883024408
5319,1.2,1.2,5319,"Motherwell, UC54 Brandon Pde South",55.788842213,-3.98972291
2433,1.2,1.2,2433,"Rugby, 19 Market Pl",52.37269792,-1.262472491
2063,1.2,1.2,2063,"Thamesmead, U6 Joyce Dawson Way",51.50695,0.10667
0377,1.2,1.2,0377,"Denton, 17 Manchester Rd",53.45611116,-2.115020586
0727,1.2,1.2,0727,"Hamilton, New Cross SC",55.77454484,-4.036755736
1835,1.2,1.2,1835,"Wellington, 9 Fore St",50.97819765,-3.228073057
1423,1.2,1.2,1423,"Paisley, 66 Neilston Rd",55.83508006,-4.423535791
1073,1.2,1.2,1073,"Dalton In Furness, 79 Market St",54.1564998,-3.181051814
0662,1.2,1.2,0662,"Lower Edmonton, 21 South Mall",51.623692001994,-0.058824646777
1659,1.2,1.2,1659,"Ayr, 239 High St",55.46041518,-4.628845445
2075,1.2,1.2,2075,"Northampton, Harvey Reeves Rd",52.23492269,-0.916320925
0048,1.2,1.2,0048,"Hebburn, U21 St James Mall SC",54.97308396309,-1.519239024185
5860,1.45,1.45,5860,"London, URM36 Tottenham Hale Station",51.5883,-0.0603
1823,1.2,1.2,1823,"Kelvinbridge, 6 Gibson St",55.87244982,-4.281704863
5533,1.45,1.45,5533,"London, Marylebone Station",51.522298,-0.163132
1966,1.2,1.2,1966,"Liverpool, UD1 Prospect Point, Prscot St",53.41087024,-2.964759109
0674,1.2,1.2,0674,"Hackney, 387B Mare S",51.5486275,-0.055271622
2219,1.2,1.2,2219,"Washington, U69 The Galleries SC",54.90013934,-1.532605363
1065,1.2,1.2,1065,"Wellington, 1 New St",52.700673884573,-2.516980373877
1435,1.2,1.2,1435,"Hereford, 53 Broad St",52.05615128,-2.717777464
3776,1.2,1.2,3776,"Ipswich, 41 Woodbridge Rd East",52.06150624,1.198195116
2167,1.2,1.2,2167,"Team Valley IE, U3 Tenth Ave",54.92481673,-1.617686975
2188,1.2,1.2,2188,"Perth, 9 Scott St",56.39636831,-3.432551182
2022,1.2,1.2,2022,"Clydebank, 113 Sylvania Way, Clyde SC",55.904638654651,-4.404226310653
6061,1.2,1.2,6061,Greggs @ Tesco Coventry,52.43431,-1.43207
3633,1.2,1.2,3633,"Bristol, 30 St Augustines Pde",51.45396585,-2.598041035
6348,1.2,1.2,6348,"Bexleyheath, UE Broadway SC",51.45619060825,0.147071001549
1462,1.2,1.2,1462,"Stenhousemuir, 35 King St",56.026134697819,-3.817247321649
5972,1.2,1.2,5972,"Leicester, 14 Beaumont SC",52.66555388,-1.165986158
1198,1.2,1.2,1198,"Scunthorpe, 33 High St",53.59206259,-0.645200313
5071,1.2,1.2,5071,"Huntingdon, St Peters Rd, The Bridge Ctr",52.34050595,-0.186305724
1931,1.2,1.2,1931,"Renfrew, 11 High St",55.87879056,-4.386152759
1875,1.2,1.2,1875,"Denaby Main, Hill Top Rd",53.4913028,-1.255473885
3848,1.2,1.2,3848,"Cumbernauld, U4B South Muirhead Crt",55.94994251,-3.985931701
1463,1.2,1.2,1463,"Woolwich, 6 Powis St",51.49098487,0.068339169
0272,1.2,1.2,0272,"Nuneaton, 12 Queens Rd",52.52256385,-1.469137355
5070,1.2,1.2,5070,"Birmingham, 105 Bristol St",52.46833798,-1.901695776
1930,1.2,1.2,1930,"Aberdeen, 166 George St",57.15049159,-2.101652077
0622,1.2,1.2,0622,"Porth, 69 Hannah St",51.61161588,-3.407499788
5709,1.2,1.2,5709,"Newcastle, U2 Mill House, Hddrcks Mil Rd",55.0057876,-1.602696506
2166,1.2,1.2,2166,"Eston, U4 Low Grange Farm SC",54.57168799,-1.164469166
2189,1.2,1.2,2189,"Glasgow, 428A Carmunnock Rd",55.81033693,-4.244862652
6060,1.2,1.2,6060,Greggs @ Tesco Rotherham,53.504531,-1.345266
3632,1.2,1.2,3632,"Edinburgh, U5 Newkirkgate SC",55.971566339342,-3.171302424137
5861,1.4,1.4,5861,"Bowburn, Integra 61 Drive Thru",54.72641002,-1.527789936
1822,1.2,1.2,1822,"Motherwell, U2 Carfin RP",55.80674939,-3.964286651
0730,1.2,1.2,0730,"Finchley, 25 Ballards Lane",51.6025646,-0.192352211
5532,1.2,1.2,5532,"Cardigan, 5 Pendre",52.08430067225,-4.660742100002
5477,1.2,1.2,5477,"Brynmawr, U4 Brynmawr RP, Blaina Rd",51.79662483,-3.176060161
0675,1.2,1.2,0675,"Harlow, 6 Bush Fair SC",51.757661099787,0.112653588101
2218,1.2,1.2,2218,"Bridlington, U11 The Promenades SC",54.08435368386,-0.187962846792
0225,1.2,1.2,0225,"Westcliff On Sea, 163 Hamlet Crt Rd",51.54084349,0.695228239
1064,1.2,1.2,1064,"Carlisle, 131 Denton St",54.88661914,-2.940253252
5924,1.2,1.2,5924,"Stockton, 10 Wellington Square",54.56526,-1.3144
3720,1.2,1.2,3720,"Glasgow, 172 Argyle St",55.85843054,-4.256359424
6172,1.45,1.45,6172,"Glasgow Airport, International Arrivals",55.86484,-4.4342864
1658,1.2,1.2,1658,"Brighton, 112 London Rd",50.83123353,-0.13617793
0049,1.2,1.2,0049,"Hexham, 41 Fore St",54.970232547218,-2.100956576563
2074,1.2,1.2,2074,"Walsall, U5 Littleton St West",52.58743245552,-1.983756108355
2424,1.2,1.2,2424,"Glasgow, 162 Buchanan St",55.86232245,-4.253210761
1834,1.2,1.2,1834,"Pontyclun, 19 Cowbridge Rd",51.52271569,-3.391380548
1567,1.2,1.2,1567,"Leigh Park, U59 Greywell SC",50.867350928192,-0.98520943058
6308,1.2,1.2,6308,"Gretna, U67B Caledonia Park, Glasgow Rd",54.99594448,-3.056426881
1422,1.2,1.2,1422,"Morecambe, U8 Arndale CTR",54.071870583986,-2.865672793737
0233,1.2,1.2,0233,"Wishaw, 83 Main St",55.7746055,-3.921627949
1971,1.2,1.2,1971,"Grantham, U3 Isaac Newton CTR",52.91032696,-0.642142755
6164,1.2,1.2,6164,"Wallasey, U13 Marine Point",53.4401854,-3.045432
0819,1.2,1.2,0819,"Clapham Junction, 22 Saint Johns Rd",51.46309418,-0.167969306
3736,1.2,1.2,3736,"Preston, 91 Fishergate",53.75783855,-2.704058154
5748,1.2,1.2,5748,"Cambridge, U2, 1 Station Square",52.194743,0.136847
2432,1.2,1.2,2432,"Martlesham Heath, U1A Betts Ave",52.06167138,1.279012232
2062,1.2,1.2,2062,"Debden, 45 The Broadway",51.64779809,0.08327071
6021,1.2,1.2,6021,Greggs @ Tesco Romford,51.56571089827,0.191889531278
1160,1.2,1.2,1160,"Newmarket, 66 High St",52.24447766,0.406499553
1530,1.2,1.2,1530,"Bridgend, U7 Raven Cl, Bridgend IE",51.50045866,-3.561561002
1926,1.2,1.2,1926,"Ferndale, 64 High St",51.66171864,-3.448133483
0264,1.2,1.2,0264,"Halifax, 10 Southgate",53.72249279,-1.860284122
1475,1.2,1.2,1475,"Longbenton, U5 The Boulevard",55.01164359,-1.591230064
6133,1.2,1.2,6133,"Staple Hill, 27 Broad St",51.48123847,-2.505373222
6076,1.2,1.2,6076,"Manchester, 128 Market St",53.4815812,-2.2382993
2035,1.2,1.2,2035,"Rushden, 40 High St",52.29045502,-0.59765458
0458,1.2,1.2,0458,"Widnes, 101 Widnes Rd",53.36775634,-2.726296622
4948,1.2,1.2,4948,"Glasgow, Easterhouse, Shandwick Sq SC",55.86853984,-4.121190084
2222,1.2,1.2,2222,"Archway, 33 Junction Rd",51.56459483,-0.134746552
6324,1.2,1.2,6324,"Wrexham, 11 Hope St",53.04577,-2.99355
5508,1.2,1.2,5508,"Bromsgrove, U5A Bromsgrove RP",52.33817272,-2.05556969
0970,1.2,1.2,0970,"Croydon, 251 Lower Addiscombe Rd",51.38067024,-0.0722249
1662,1.2,1.2,1662,"Newport, 42 Commercial St",51.58562221,-2.994515571
1232,1.2,1.2,1232,"Nottingham, 178 Broxtowe Lane",52.97936267,-1.208270425
4899,1.2,1.2,4899,"Thetford, U6 Stapleford Way",52.40644264,0.72778861
0589,1.2,1.2,0589,"North Chingford, 25 Station Rd",51.63111278,0.002907948
5271,1.2,1.2,5271,"Dundee, U3 Dunsinane IE, Broomhill Rd",56.481391016126,-3.015598211806
0136,1.2,1.2,0136,"Glasgow, 2123 Paisley Rd West",55.84573248,-4.354649734
5764,1.2,1.2,5764,"Peterborough, U19B Serpentine Green SC",52.54125,-0.2621
0566,1.2,1.2,0566,"Wolverhampton, 24 Market St",52.58502296,-2.125852517
0835,1.2,1.2,0835,"Bermondsey, 79 Tower Bridge Rd",51.49615718,-0.082994615
3464,1.2,1.2,3464,"Ilkeston, 33 Bath St",52.97290988,-1.30901151
1459,1.2,1.2,1459,"Boston, 14 Pescod Sq SC",52.97892574,-0.021787808
1009,1.2,1.2,1009,"Pimlico, 111 Lupus St",51.48761152,-0.141624566
2275,1.2,1.2,2275,"Edinburgh, 141 Boswall Parkway",55.97518631,-3.238070843
2330,1.2,1.2,2330,"Nottingham, 331 Nuthall Rd",52.97465148,-1.1877552
3521,1.2,1.2,3521,"Bedford, U19 Harpur SC",52.136062170691,-0.469291391176
6373,1.2,1.2,6373,Greggs @ Tesco Extra Kingston Park,55.01379924,-1.66194408
4964,1.2,1.2,4964,"Merthyr Tydfil, Pentrebach RP",51.72726867,-3.361175554
5676,1.2,1.2,5676,"Caerphilly, 6 Alfrd Own Wy, Pntygwndy IE",51.589251,-3.223833
2449,1.2,1.2,2449,"Bridgend, 15 Adare St",51.507506164845,-3.577766834243
0024,1.2,1.2,0024,"Milngavie, 6 Douglas St",55.941392737939,-4.318281333815
1770,1.2,1.2,1770,"Bradford, U5 The Parkside CTR",53.81649703,-1.773527716
5733,1.2,1.2,5733,"Harringay, U4A Arena SP, Green Lanes",51.576251,-0.097698
5699,1.45,1.45,5699,"London, 421-422 Strand",51.50989262,-0.123467469
0161,1.2,1.2,0161,"Edinburgh, 21 Elm Row",55.95898134,-3.183163534
6220,1.2,1.2,6220,"Cwmrhydyceirw, U2 Rhodfa Fadog",51.682893231931,-3.923357734455
1859,1.2,1.2,1859,"Colne, 41 Market St",53.85731571,-2.166533704
1789,1.2,1.2,1789,"Stockton, Preston Farm IE",54.54616939,-1.320561069
0032,1.2,1.2,0032,"Cannock, 1 Market Hall St",52.68935662,-2.030776025
5230,1.2,1.2,5230,"Greenock, 1 Auchmead Rd",55.93797715,-4.814299035
5375,1.4,1.4,5375,"Bognor Regis, U6 Saltbox Rd Drive Thru",50.80640124,-0.669119125
0177,1.2,1.2,0177,"Falkirk, 4 Lintriggs",56.00014,-3.78664
5725,1.2,1.2,5725,"Southampton, 51 Above Bar St",50.90421913,-1.404468293
0527,1.2,1.2,0527,"Nottingham, U32 Victoria CTR",52.956300318004,-1.147137900259
1766,1.2,1.2,1766,"Sheffield, Meadowhall SC, The Arcade",53.41524731,-1.411422884
1418,1.2,1.2,1418,"Castleford, 9 The Square",53.72364544,-1.314512794
6277,1.45,1.45,6277,"Ldn, U2 Embankment Underground Stn",51.507256,-0.122194
2234,1.2,1.2,2234,"Gateshead, G109 Trinity Sq",54.96255119,-1.602378081
2371,1.2,1.2,2371,"Hamilton, Low Waters Rd",55.76094955,-4.045662507
3560,1.2,1.2,3560,"Birmingham, U54 Cuckoo TP",52.50581224,-1.863485419
6298,1.2,1.2,6298,"Coventry, U4 CODE Building, Fairfax St",52.40950979095,-1.503930256976
5637,1.2,1.2,5637,Greggs @ Tesco Thornton Heath,51.39899934,-0.09990375
0435,1.2,1.2,0435,"Shaw, 28 Market St",53.57707801,-2.093910913
5267,1.2,1.2,5267,"Cannock, Cannock Gateway RP, Eastern Wy",52.67344532,-2.02240026
1361,1.2,1.2,1361,"Hanley, 2 Upper Market Sq",53.02651657,-2.174764041
0989,1.2,1.2,0989,"Holborn, 81 Leather Ln",51.52129236,-0.110064051
1731,1.2,1.2,1731,"Bradford, Lister Hills",53.79309414,-1.77200705
5772,1.2,1.2,5772,"Byker, 260 Shields Rd",54.97756135527,-1.57675586592
5355,1.2,1.2,5355,"Sheffield, U2 Beighton BP, Chstrfield Rd",53.35515049,-1.329183439
0507,1.2,1.2,0507,"Glasgow, The Forge SC",55.85344117251,-4.199821883908
1746,1.2,1.2,1746,"Uddingston, 49 Main St",55.81905737,-4.082355848
0854,1.2,1.2,0854,"Abingdon, 7 Bury St",51.670406755574,-1.282218654662
6129,1.2,1.2,6129,"Sale, 154A Northenden Rd",53.4200378,-2.304639821
1316,1.2,1.2,1316,"Bristol, Ucg12 The Galleries",51.456750113664,-2.58986044546
0911,1.2,1.2,0911,"Epping, 257 High St",51.69996404,0.112266339
3794,1.2,1.2,3794,"Durham, U3 Dragonville RP",54.77607737,-1.54090195
0012,1.2,1.2,0012,"Blaydon, U15 The PCT",54.964670690857,-1.712073256587
5210,1.2,1.2,5210,"St Neots, U3 Quora RP, Howard Rd",52.21109,-0.28843
2185,1.2,1.2,2185,"Middlesbrough, U34 Hill St SC",54.57711802,-1.238854982
1480,1.2,1.2,1480,"Hosforth, 33 Town St",53.837681,-1.641283003
5093,1.2,1.2,5093,"Sheffield, 95 Pinstone St",53.3791452,-1.470516823
0291,1.2,1.2,0291,"Becontree, 792 Green Lane",51.561955,0.12342449
2306,1.2,1.2,2306,"London, 41 Ludgate Hill",51.51393413,-0.102352836
5139,1.2,1.2,5139,"Hull, U7b St Andrews RP, Hessle Rd",53.73417962,-0.368196611
1896,1.2,1.2,1896,"Llandudno, 73 Mostyn St",53.32417674,-3.829204151
1195,1.2,1.2,1195,"Durham, 1 North Rd",54.77632294,-1.579291113
1341,1.2,1.2,1341,"Wickersley, 236 Bawtry Rd",53.42105651,-1.283696003
1711,1.2,1.2,1711,"Portsmouth, 13 Crasswell St",50.80129034,-1.088203255
0803,1.2,1.2,0803,"Kings Lynn, 93 High St",52.75412163,0.395177529
5302,1.2,1.2,5302,"Gloucester, Eastern Ave TE",51.85787146,-2.221134791
1204,1.2,1.2,1204,"Dartford, 28 High St",51.44444708,0.218116095
1654,1.2,1.2,1654,"Cupar, 5 Crossgate",56.31932395,-3.012031927
0946,1.2,1.2,0946,"Witham, 52 Newlands SC",51.79988919,0.639959744
3813,1.2,1.2,3813,"Dumfries, U7 Dumfries RP",55.07875472,-3.62263817
1438,1.2,1.2,1438,"Clarkston, U5 Busby Rd",55.79002232,-4.277035679
2214,1.2,1.2,2214,"Lincoln, U4 Brant Rd SC",53.19114098,-0.557011055
5181,1.2,1.2,5181,"Washington, U3B Peel RP",54.9071031,-1.50373378
0383,1.2,1.2,0383,"Stockport, 55 Castle St",53.40199997,-2.165510206
2081,1.2,1.2,2081,"Stockton, U23 Teesside RP",54.55588929,-1.275847335
0815,1.2,1.2,0815,"Telford, Telford SC, 54 Southwater",52.674888461965,-2.446972052111
1707,1.2,1.2,1707,"Rotherham, U33 Parkgate SP",53.44453205,-1.346633592
6168,1.2,1.2,6168,"Greggs @ Primark The Horsefair, Bristol",51.4585,-2.59125
1642,1.2,1.2,1642,"Gateshead, U3 Saltmeadows Rd",54.96755833,-1.588765805
1212,1.2,1.2,1212,"Runcorn, 34 Forest Wlk",53.327701624615,-2.698491459205
5251,1.2,1.2,5251,"Burton Upon Trent, 2 Cooper Sq SC",52.802040751982,-1.631870502064
3556,1.2,1.2,3556,"Stourbridge, 62 High St",52.45644628,-2.145393454
1091,1.2,1.2,1091,"Maryport, 67 Senhouse St",54.71396924,-3.497603512
1838,1.2,1.2,1838,"Stirling, U2 Springkerse TP",56.11164091,-3.917895678
3805,1.2,1.2,3805,"Leicester, 15 Gallowtree Gate",52.63569536,-1.132870217
2347,1.2,1.2,2347,"Porthcawl, 31 St John",51.47767534,-3.703784867
0680,1.2,1.2,0680,"Kentish Town, 311 Kentish Town Rd",51.54975145,-0.141137395
5178,1.2,1.2,5178,"Maldon, Blackwater RP",51.736754183178,0.681231946105
1992,1.2,1.2,1992,"Swansea, UB Swansea Bus Station",51.61806402,-3.946505491
5197,1.2,1.2,5197,"East Kilbride, Kingsgate SP",55.78361864,-4.166206801
2202,1.2,1.2,2202,"Godalming, 8 High St",51.18589796,-0.610567608
6241,1.2,1.2,6241,"Crosby, 19 Liverpool Rd",53.4924256,-3.0258747
1750,1.2,1.2,1750,"Cardiff, Avenue RP",51.49922674,-3.139985828
5713,1.45,1.45,5713,"London, 165 Victoria St",51.49660225,-0.140931049
4944,1.2,1.2,4944,"Grindon, U4 Broadway House, Sprngwll Rd",54.89450275,-1.429649561
5656,1.2,1.2,5656,"Thurmaston, U11 Thurmaston SC",52.684076772279,-1.089620424657
2193,1.2,1.2,2193,"Fakenham, U14 Miller'S Wlk",52.829670408011,0.849288359657
0454,1.2,1.2,0454,"Waterloo, 100 South Rd",53.47537923,-3.024622686
5206,1.2,1.2,5206,"Coventry, 25 Smithford Way",52.40901409,-1.513157412
2039,1.2,1.2,2039,"Swindon, U2A Lydiard Fields",51.54720332,-1.850907748
3628,1.2,1.2,3628,"London, Park Royal, U1 Acton Lane",51.530054,-0.26853
0287,1.2,1.2,0287,"Putney, 145 High St",51.46186887,-0.216436505
3852,1.2,1.2,3852,"Melksham, U3 Ashville Ctr, Commerce Way",51.35509171,-2.140384904
3501,1.2,1.2,3501,"Partick, 392 Dumbarton Road",55.87090785,-4.309270315
6353,1.2,1.2,6353,Greggs @ Sainsbury's Hamilton,55.780462830213,-4.056403984628
1496,1.2,1.2,1496,"Worthing, 111 Montague St",50.80999357,-0.375028008
1479,1.2,1.2,1479,"Maidstone, Northumberland Crt",51.25271057,0.545435865
1183,1.2,1.2,1183,"Wakefield, U1 Bus Station",53.68590585082,-1.498309678381
1029,1.2,1.2,1029,"Tooting, 41 Mitcham Rd",51.42734027,-0.166688288
6216,1.2,1.2,6216,"Hinckley, U2, 24 Fieldfare Rd",52.54993717,-1.399113411
0792,1.2,1.2,0792,"Grimsby, 32 Friargate, Freshney Pl SC",53.56580252,-0.086418414
1880,1.2,1.2,1880,"Northampton, U46 Weston Favell SC",52.2570692,-0.8361341
4895,1.2,1.2,4895,"Livingston, U96 The Centre",55.883348,-3.51527
5787,1.2,1.2,5787,"Guiseley, U7B Guiseley RP",53.871779,-1.709246
6001,1.2,1.2,6001,"West Bromwich, U17 New Sq SC",52.52029885,-1.991347096
1394,1.2,1.2,1394,"Crewe, 62 Market St",53.09876382,-2.44097951
3653,1.2,1.2,3653,"Longbenton, Quorum Retail Pde",55.02036422,-1.582240873
6144,1.2,1.2,6144,"Lye, U5 Forge RP, Dudley Rd",52.46236518,-2.116886895
0839,1.2,1.2,0839,"West Croydon, 10 London Rd",51.37850445,-0.102840773
3716,1.2,1.2,3716,"Ayr, 85 High St",55.46298221,-4.630574523
5768,1.45,1.45,5768,"Birmingham Airport, U113 Arrivals",52.45192,-1.73306
1402,1.2,1.2,1402,"Winchester, 16 High St",51.06202565,-1.312683991
5912,1.2,1.2,5912,"Belfast, 32 Gt Victoria St",54.5948753,-5.9346966
5011,1.2,1.2,5011,"Clydebank, U13 Sylvania Way, Clyde SC",55.90190273061,-4.404872878719
5441,1.4,1.4,5441,"Wrexham, Ruabon Park SS, James Park Way",52.9834392,-3.045323825
0706,1.2,1.2,0706,"Barnard Castle, 11 Horsemarket",54.54388283,-1.923716837
1814,1.2,1.2,1814,"Telford, Kiosk, Kielder Sq, Telford SC",52.67677369,-2.446674367
6328,1.4,1.4,6328,"Tunstall, Sandyford Service Station",53.06906377411,-2.214696332477
1639,1.2,1.2,1639,"Hartlepool, The Fens SC",54.65541946,-1.233351719
1269,1.2,1.2,1269,"Southampton, 101 Above Bar St",50.90620164,-1.404667387
0881,1.2,1.2,0881,"Crawley, 17 Queensway",51.1156759,-0.185653242
1793,1.2,1.2,1793,"Blackpool, 1 Welbeck Ave",53.79884719,-3.025750667
0028,1.2,1.2,0028,"Darlington, U60 Cornmill SC",54.525799209135,-1.553939360081
4987,1.2,1.2,4987,"Peterborough, 22 Long Causeway",52.57389634,-0.241909317
2150,1.2,1.2,2150,"Kimberley, 41 Greens Lane",52.99689284,-1.25592547
5046,1.2,1.2,5046,"Newtown, Pool Rd",52.51575469,-3.304958751
3891,1.2,1.2,3891,"Andover, UC Walworth BP, Columbus Wy",51.21232195,-1.455038199
1005,1.2,1.2,1005,"Morden, 54 London Rd",51.40274637,-0.193851778
1455,1.2,1.2,1455,"Didcot, U13 Orchard CTR",51.60714901,-1.239467897
1140,1.2,1.2,1140,"Felixstowe, 35 Hamilton Rd",51.96184691,1.351109669
3487,1.2,1.2,3487,"Poynton, 21 Park Ln",53.34902755,-2.120510666
1510,1.2,1.2,1510,"Goole, 5 Wesley Sq",53.70503064,-0.871741666
0751,1.2,1.2,0751,"Newcastle, 42 Neville St",54.96934767,-1.617641912
1843,1.2,1.2,1843,"Dumbarton, U4 St James RP",55.94356337,-4.560871607
5553,1.2,1.2,5553,"Swansea, U44A Cwmdu IE, Carmarthen Rd",51.6359559,-3.970546307
2296,1.2,1.2,2296,"Cradley Heath, 190C Halesowen Rd",52.47692986,-2.068135288
0194,1.2,1.2,0194,"Helensburgh, 26 Sinclair St",56.00346639,-4.733456199
5396,1.2,1.2,5396,"Liverpool, Queens Square Bus Station",53.4075427,-2.9826939
2003,1.2,1.2,2003,"Arbroath, U1 Abbeygate SC",56.56096225,-2.582977483
6040,1.2,1.2,6040,"Harlow, U1B Queensgate RP, Edinburgh Way",51.78315552,0.106508157
6105,1.2,1.2,6105,Greggs @ Tesco Pengam Green,51.48761,-3.12741
0878,1.2,1.2,0878,"Oxford, Templars Sq SC",51.73177563,-1.217703197
5729,1.45,1.45,5729,"London, 154 Bishopsgate",51.51712001,-0.080649927
2146,1.2,1.2,2146,"Shepherd's Bush, 68 Uxbridge Rd",51.50459231,-0.219726679
4991,1.2,1.2,4991,"Dumfries, 71 High St",55.067748388403,-3.609545186737
0481,1.2,1.2,0481,"Blackheath, 181 High St",52.47562537,-2.03966241
1443,1.2,1.2,1443,"Newcastle, 31 Quayside",54.96913578,-1.60498404
0252,1.2,1.2,0252,"Chesterfield, 38 Burlington St",53.23615382,-1.425904695
3887,1.2,1.2,3887,"Liverpool, U9 Great Homer, District Ctr",53.42460527,-2.979450156
1910,1.2,1.2,1910,"Hairmyres, U6 St James Ave",55.76057521,-4.227281623
0602,1.2,1.2,0602,"Thirsk, 36 Market Pl",54.2323618,-1.342276326
5400,1.2,1.2,5400,"Basingstoke, U10B St Michaels RP",51.25240454,-1.107985666
5545,1.2,1.2,5545,"Coleshill, U39 Coleshill IE, Station Rd",52.51321272,-1.709382341
5816,1.2,1.2,5816,"Headington, 118 London Rd",51.759982510169,-1.21119946717
3491,1.4,1.4,3491,"Porthill Service Station, Porthill Rd",53.04060858,-2.214154962
1678,1.2,1.2,1678,"Marlborough, 104 High St",51.41938277,-1.733102591
1382,1.2,1.2,1382,"Leeds, 26 Cross Gates SC",53.80668749,-1.450374715
2054,1.2,1.2,2054,"Swanage, 14 Station Rd",50.60960169,-1.95791042
2404,1.2,1.2,2404,"Cardiff, 2A Park Pl",51.48276912,-3.174619056
0439,1.2,1.2,0439,"St Helens, 111 Higher Parr St",53.453958,-2.72101268
2111,1.2,1.2,2111,"Hartlepool, U2 Powlett Rd",54.69872364,-1.220618293
5284,1.2,1.2,5284,"Edinburgh, U7 Muirhouse SC, Pennywell Rd",55.97132502,-3.25250032
3700,1.2,1.2,3700,"Taunton, U26 Orchard SC",51.01399056941,-3.10195043391
0985,1.2,1.2,0985,"South Bermondsey, 1A Ilderton Rd",51.48828232,-0.057726802
5457,1.2,1.2,5457,"Acocks Green, 1130 Warwick Rd",52.44688158,-1.820768658
5007,1.2,1.2,5007,"Craven Arms, U1 Craven Ctr, Shrwsbury Rd",52.44072589,-2.835855429
2238,1.2,1.2,2238,"Rossington, U2 Rossington Market",53.47806747,-1.078625103
5904,1.4,1.4,5904,"Wakefield, Silkwood Park Drive Thru",53.681855,-1.547752
1101,1.2,1.2,1101,"Brecon, U1 Bethnal Sq SC",51.94763032,-3.390414916
1551,1.2,1.2,1551,"Eastwood, 67 Nottingham Rd",53.01788022,-1.304648278
1802,1.2,1.2,1802,"Aspley, Carr Pit Rd",53.64425345,-1.77173981
5512,1.4,1.4,5512,"Glasgow, 4 Allerdyce Court Drive Thru",55.9026963,-4.377140121
5142,1.2,1.2,5142,"South Oxhey, 6 Station Approach",51.62842933,-0.386654998
1223,1.2,1.2,1223,"Bridgwater, U2, 8 High St",51.12864152,-3.004390547
1389,1.2,1.2,1389,"Hinckley, 20 Castle St",52.54151741,-1.371893601
4922,1.2,1.2,4922,"Teignmouth, 12 Wellington St",50.54623988,-3.49557169
0598,1.2,1.2,0598,"Chepstow, 20 High St",51.64179034,-2.674985067
5260,1.2,1.2,5260,"Glasgow, 197 Sauchiehall Ctr",55.865346187608,-4.263768335823
5775,1.2,1.2,5775,"Ashford, Ashford RP, Barrey Rd",51.13036971,0.905713973
6159,1.45,1.45,6159,"London, U2, 50 Finsbury Square",51.52013652,-0.087134282
1366,1.2,1.2,1366,"Edinburgh, 21 South Bridge",55.94929925,-3.186947715
1736,1.2,1.2,1736,"Seaham, Byron Pl SC",54.836346797179,-1.331216362032
2399,1.2,1.2,2399,"Oswestry, 1 Church St",52.85887632,-3.055567323
5149,1.2,1.2,5149,"Stourbridge, Stourbridge TE, Mil Race Ln",52.4596916,-2.146888339
1809,1.2,1.2,1809,"Aberdare, 22A Victoria Sq",51.71334464,-3.444114441
0465,1.2,1.2,0465,"Acocks Green, 25 Olton Boulevard East",52.44332019,-1.833927602
3619,1.2,1.2,3619,"Sheffield, Drake House Cre",53.34580175,-1.355266755
1624,1.2,1.2,1624,"Andover, 57 High St",51.20825401,-1.479155112
0936,1.2,1.2,0936,"Hinckley, U16 Britannia SC",52.54153279,-1.371896779
1761,1.2,1.2,1761,"Paulsgrove, 179 Allaway Ave",50.84965028,-1.094042909
0873,1.2,1.2,0873,"Clacton-On-Sea, 19 Station Rd",51.78920025,1.152925466
1331,1.2,1.2,1331,"Cosham, 18 High St",50.84567313,-1.06679686
5688,1.4,1.4,5688,"Slough, Westgate RP Drive Thru",51.51776689,-0.629865886
0170,1.2,1.2,0170,"Hornchurch, 148 High St",51.56218209,0.219978852
5372,1.2,1.2,5372,"Woodville, U1, 42 High St",52.76768955,-1.532350915
0520,1.2,1.2,0520,"Birmingham, 1013 Alcester Rd Sth",52.40602793,-1.887171144
0259,1.2,1.2,0259,"Doncaster, Waterdale SC",53.52099304,-1.133256913
3530,1.2,1.2,3530,"Ayr, U15 Heathfield RP",55.47901969,-4.594927653
1262,1.2,1.2,1262,"Hounslow, 8 High St",51.468503,-0.363528848
0920,1.2,1.2,0920,"Reading, 16 Broad St Mall",51.45489036,-0.975629845
1632,1.2,1.2,1632,"Edinburgh, 357 Leith Wlk",55.96411727,-3.177108806
0473,1.2,1.2,0473,"Bilston, 102 Church St",52.565114432249,-2.078056822896
4963,1.2,1.2,4963,"Caerphilly, UC Castle View SC",51.5708311,-3.242155963
0189,1.2,1.2,0189,"Grangemouth, 21 La Porte PCT",56.018963163311,-3.722747214121
5734,1.2,1.2,5734,"Stoke on Trent, U2 Baths Rd",52.9897775,-2.1403677
0536,1.2,1.2,0536,"Rubery, 175 New Rd",52.39388352,-2.017927233
0166,1.2,1.2,0166,"Edinburgh, 74 Nicholson St",55.94538907,-3.184234684
0865,1.2,1.2,0865,"Braintree, 5 George Yard SC",51.878602207273,0.549923904499
1777,1.2,1.2,1777,"Liverpool, 18 Richmond St",53.40642689,-2.984083178
2272,1.2,1.2,2272,"Wigan, 21 Market Pl",53.54639794,-2.631373839
3526,1.45,1.45,3526,"Manchester, Concourse Ksk, Victoria Stn",53.48728505,-2.242421203
6374,1.2,1.2,6374,Greggs @ Tesco Extra Romford,51.593308387,0.2188327067
2337,1.2,1.2,2337,"Bradford, 228 Sticker Lane",53.78459888,-1.720578094
1848,1.2,1.2,1848,"Glossop, 25 High St West",53.44323762,-1.950679069
5276,1.2,1.2,5276,"Edinburgh, U1 Bankhead Medway",55.92608933,-3.293437334
2049,1.2,1.2,2049,"Mackworth, 91 Prince Charles Ave",52.92818012,-1.518843835
0424,1.2,1.2,0424,"Preston, St George SC, 60 Fshergate Wlk",53.757794510516,-2.70401550298
0977,1.2,1.2,0977,"Eltham, 166 High St",51.45066153,0.056369211
1665,1.2,1.2,1665,"Cambuslang, 136 Main St",55.81904751,-4.168645975
1720,1.2,1.2,1720,"Hucknall, 54 High St",53.03835705,-1.203085429
0131,1.2,1.2,0131,"Bishopbriggs, 174 Woodhill Rd",55.90716924,-4.206604312
5333,1.2,1.2,5333,"Barnsley, U2 Old Mill Ln",53.56160691,-1.471880056
5763,1.45,1.45,5763,"London, U2, 101 Tottenham Court Rd",51.52276494,-0.136736673
6266,1.2,1.2,6266,"Hedge End, R1 Hedge End TP, Tollbar Way",50.9244419,-1.311872804
1409,1.2,1.2,1409,"Basingstoke, Festival Pl SC",51.26612873,-1.087607585
5919,1.2,1.2,5919,"Newton Mearns, U36 The Avenues SC",55.772556,-4.334192274
0648,1.2,1.2,0648,"Chingford, 4 Albert Cres",51.61730415,-0.018391277
0218,1.2,1.2,0218,"Edinburgh, 164 High St Portobello",55.95286525,-3.113991213
3822,1.2,1.2,3822,"Belfast, U5 Twin Spires Complex",54.59963656,-5.947917814
3571,1.2,1.2,3571,"Newcastle, 73 Grainger St",54.97141741,-1.615367713
3766,1.2,1.2,3766,"Bolton, 64 Deansgate",53.57982065,-2.430080855
2177,1.2,1.2,2177,"Longbridge, 4 High Street",52.39553749,-1.984114904
5718,1.2,1.2,5718,"Crayford, U1 Tower RP, Crayford Rd",51.45029,0.18228
2032,1.2,1.2,2032,"Glasgow, 100 George St",55.86109517,-4.244026739
2462,1.2,1.2,2462,"Bath, U56 Southgate, Southgate St",51.37872223,-2.359536219
3789,1.2,1.2,3789,"Kirkintilloch, 73 Cowgate",55.940012,-4.157191459
1864,1.2,1.2,1864,"Madeley, U14 Anstice Sq",52.636579447513,-2.450305018044
1167,1.2,1.2,1167,"Manchester, 28 Cross St",53.48191006,-2.244714505
1537,1.2,1.2,1537,"Cambridge, 10 Fitzroy St",52.20662526,0.129915532
1022,1.2,1.2,1022,"Southfields, 8 Replingham Rd",51.44467271,-0.205932423
1188,1.2,1.2,1188,"Lowestoft, 65 London Rd North",52.47573174,1.751928489
0263,1.2,1.2,0263,"Garforth, 55 Main St",53.79415451,-1.388514893
0799,1.2,1.2,0799,"Kiddminster, U1 Swan SC",52.38824036,-2.249021302
6163,1.2,1.2,6163,"Barrow-In-Furness, U2 Portland Walk",54.1132288,-3.2262391
3731,1.2,1.2,3731,"Bristol, 87 Broadmead",51.45709648,-2.590814655
1649,1.2,1.2,1649,"Waterlooville, 302 London Rd",50.88000864,-1.031011364
0408,1.2,1.2,0408,"Marple, 3 The Hollins",53.39466815,-2.062612133
4918,1.2,1.2,4918,"Bolton, Bolton Interchange",53.57640818,-2.427644613
2065,1.2,1.2,2065,"Camberley, 24 Princess Way",51.33737509,-0.745780493
1560,1.2,1.2,1560,"Blyth, 16 Regent St",55.127616161814,-1.509371606701
5870,1.2,1.2,5870,"Horden, U4 Cotsford Lane",54.7610967,-1.3148869
0721,1.2,1.2,0721,"Durham, 2 Saddler St",54.77670902,-1.575272298
5523,1.2,1.2,5523,"Dunfermline, U3 Pittsburgh RP, Main St",56.081302,-3.405026913
5036,1.2,1.2,5036,"Liverpool, U6 Liverpool SP, Edge Lane",53.40945538,-2.923929292
0664,1.2,1.2,0664,"Enfield, 308 Baker St",51.66295974,-0.077847822
1976,1.2,1.2,1976,"Stapleford, 44 Derby Rd",52.92900304,-1.276232585
2423,1.2,1.2,2423,"East Kilbride SC, The Plaza",55.760031403739,-4.179861798098
3662,1.2,1.2,3662,"Stocksbridge, UA4 Fox Valley RP",53.48326418,-1.589355357
5535,1.2,1.2,5535,"Birmingham, Exchange Sq",52.48207065,-1.89063973
3818,1.2,1.2,3818,"Haddington, 29 Market St",55.95586924,-2.777547946
0367,1.2,1.2,0367,"Bury, 16 Princess Pde, Mill Gate SC",53.59146172,-2.295064435
6319,1.2,1.2,6319,"Leighton Buzzard, 45 High Street",51.916464565226,-0.662358906737
1126,1.2,1.2,1126,"Leeds, Northside RP",53.82856281,-1.564330547
5866,1.2,1.2,5866,"Milford Haven, UB2 Havens Head RP",51.71668368,-5.041918996
5889,1.2,1.2,5889,"Chaddesden, U5 St Marys RP, Nttinghm Rd",52.9250962,-1.441736143
0388,1.2,1.2,0388,"Handforth, 134 Wilmslow Rd",53.34998425,-2.214875351
5470,1.2,1.2,5470,"Northampton, 29 Darnell Way",52.27332227,-0.865449186
3770,1.2,1.2,3770,"Ipswich, U6 Hines Rd, Rosehill SC",52.04782335,1.181800637
1258,1.2,1.2,1258,"Shirley, 45 High St",50.92194451,-1.432816183
1608,1.2,1.2,1608,"Cardiff, 23 Caroline St",51.47829511,-3.175933562
1521,1.2,1.2,1521,"Bletchley, 108 Queensway",51.99442495,-0.730978591
5831,1.4,1.4,5831,"Sittingbourne, Saffron Way Drive Thru",51.35336,0.74099
1872,1.2,1.2,1872,"Ashby De La Zouch, 25 Market Pl",52.74696978,-1.472399448
5098,1.2,1.2,5098,"Liverpool, U14 Aintree SP",53.48171105,-2.952064462
0760,1.2,1.2,0760,"Skipton, 60 High St",53.96154099,-2.017023303
5562,1.2,1.2,5562,"Bicton Heath SC, Welshpool Rd",52.71482074,-2.805612446
5427,1.2,1.2,5427,"Manchester, U6 Peter House, Oxford St",53.4772963,-2.243947681
5974,1.4,1.4,5974,"Winsford, Winsford IE SS",53.2069537,-2.4984446
1413,1.2,1.2,1413,"Huddersfield, U39 Kingsgate SC",53.64590036,-1.779952867
5903,1.2,1.2,5903,"Kingswinford, 8 Market St",52.49637643,-2.168140501
0652,1.2,1.2,0652,"Dalston, 61 Kingsland High St",51.5483315,-0.075560283
2395,1.2,1.2,2395,"Swansea, Morriston, U1 Heron Wy",51.66435536,-3.913066354
5450,1.2,1.2,5450,"Cardiff, U1 Penarth Rd RP",51.45381538,-3.198075311
5515,1.2,1.2,5515,"Glasgow, U2 Rutherglen RP, Dalmarnock Rd",55.83639338,-4.210816426
3838,1.2,1.2,3838,"Sheffield, UJ St James RP, Bochum Parkwy",53.32822213,-1.467160258
1805,1.2,1.2,1805,"Liverpool, 51 North John St",53.40562069,-2.988122511
0717,1.2,1.2,0717,"Wilmslow, 49 Grove St",53.326312015744,-2.232025542914
5145,1.2,1.2,5145,"Edenbridge, U3 Fircroft Way",51.20718318,0.061885024
1556,1.2,1.2,1556,"Kingston, 28 Market Pl",51.40966457,-0.305802081
5796,1.45,1.45,5796,"London, 1 Leicester Sq",51.51070789,-0.130852445
1385,1.2,1.2,1385,"Coventry, 243 Walsgrave Rd",52.41119094,-1.481975274
3642,1.2,1.2,3642,"Greenock, 44 Hamilton Way",55.947814032622,-4.758480336289
0828,1.2,1.2,0828,"Whickham, 3 Saint Marys Green",54.94621052,-1.678433893
1690,1.2,1.2,1690,"Dewsbury, U8 Ravensthorpe SC",53.68006782,-1.662640561
6155,1.2,1.2,6155,"Aberdeen, 161 Union St",57.14555156,-2.101766625
2116,1.2,1.2,2116,"Blaby, 9 St Johns Crt",52.57490972,-1.163798537
5779,1.2,1.2,5779,"Stockport, 26 Mersey Sq",53.4099983,-2.1627336
0255,1.2,1.2,0255,"Catford, 136 Rushey Green",51.44631988,-0.019532193
1917,1.2,1.2,1917,"Belper, 40 King St",53.02317155,-1.482108697
0605,1.2,1.2,0605,"Morriston, 29 Woodfield St",51.6648039,-3.925649593
1444,1.2,1.2,1444,"Birmingham, U3B Bullring SC, Lower Mall",52.47681352,-1.895363736
1014,1.2,1.2,1014,"Raynes Park, 36 Coombe Ln",51.40959005,-0.230465714
1501,1.2,1.2,1501,"Edinburgh, 17 West Maitland St",55.94666113,-3.216369154
5811,1.2,1.2,5811,"Newark on Trent, UD2 The Maltings RP",53.081665,-0.805464
3496,1.2,1.2,3496,"Blyth, The Windmill, Cowpen Rd",55.13033793,-1.541558953
0310,1.2,1.2,0310,"Otley, 36 Market Pl",53.90535685,-1.693862447
0740,1.2,1.2,0740,"Slough, Buckingham CTR",51.52140639,-0.625498595
2287,1.2,1.2,2287,"Milton Keynes, U1 Phoenix Hse",52.034160863925,-0.771685790101
3615,1.2,1.2,3615,"Kettering, U14 The Mall, Newlands SC",52.401455133887,-0.727396348494
5391,1.2,1.2,5391,"Middlesbrough, U1 Park Parade",54.5625457,-1.205773454
0193,1.2,1.2,0193,"Hardgate, 5 Rockbank Pl",55.92425023,-4.4021244
4979,1.45,1.45,4979,"East Midlands Airport, Arrivals",52.826123676677,-1.329623046615
2004,1.2,1.2,2004,"Harlow, U3 The Watergardens SC",51.76808307,0.09484927
0039,1.2,1.2,0039,"Forest Hall, 19 Station Rd",55.02178131,-1.566218784
0486,1.2,1.2,0486,"Codsall, 18 Station Rd",52.6298818,-2.20152224
5684,1.2,1.2,5684,"Basildon, U3 St Hillary RP, Miles Gry Rd",51.580741,0.445702
2141,1.2,1.2,2141,"Bletchley, U1C Beacon RP",52.00317756,-0.725097301
1002,1.2,1.2,1002,"Mill Hill, 44 The Broadway",51.61471267,-0.24678583
0613,1.2,1.2,0613,"Newport, 31 High St",51.58817927,-2.996713359
5041,1.2,1.2,5041,"Aberystwyth, U2.1 Parc Melin",52.40085104,-4.043076009
5554,1.4,1.4,5554,"Eskbank, Eskbank Roundabout Drive Thru",55.88129427,-3.08729394
3879,1.2,1.2,3879,"Carmarthen, U3 Parc Pensarn",51.85069102,-4.307637395
3480,1.2,1.2,3480,"Bradford, 23 Broadway",53.79381495,-1.751547595
1147,1.2,1.2,1147,"East Dereham, U1 Nelson Pl",52.68085101,0.941165688
0185,1.2,1.2,0185,"Glasgow, 240 Saracen St",55.88349011,-4.254047675
1794,1.2,1.2,1794,"Hartlepool, U6 Belle Vue Way",54.66937311,-1.211584995
0869,1.2,1.2,0869,"Chelmsford, 146 Gloucester Ave",51.71601471,0.474856678
1281,1.2,1.2,1281,"Ashby, 18 Broadway",53.56658695,-0.648744706
6114,1.2,1.2,6114,"Maidstone, 15 Week St",51.27440439,0.522946822
4980,1.2,1.2,4980,"Selly Oak, U9A Selly Oak SP",52.4442367,-1.938821396
2157,1.2,1.2,2157,"Stratford, Maybird RP",52.20087065,-1.713546984
0490,1.2,1.2,0490,"Coventry, 38 Jardine Cres",52.40659448,-1.575744808
5368,1.2,1.2,5368,"Yeovil, U3 Lynx Trade Park, Garrett Rd",50.93348265,-2.657804594
5738,1.2,1.2,5738,"Manchester, U5 St Marys Gate",53.48317008,-2.246165525
5446,1.2,1.2,5446,"Dartford, Bluewater SC, Bluewater Prkway",51.43943,0.27287
0644,1.2,1.2,0644,"Hereford, 14 Commercial St",52.05714107,-2.713889548
1055,1.2,1.2,1055,"Annan, 103 High St",54.98723219,-3.260290273
1540,1.2,1.2,1540,"Manchester, U34 Fort SP",53.4978408,-2.236696121
0701,1.2,1.2,0701,"Walworth, 273 Walworth Rd",51.48790867,-0.095357888
1239,1.2,1.2,1239,"Ellesmere Port, 29 Marina Dr",53.27862046,-2.900942146
3654,1.2,1.2,3654,"Cumnock, U7 Townhead St",55.45425,-4.262144651
1393,1.2,1.2,1393,"Liverpool, St Johns SC, 60 Houghton St",53.4061875,-2.981551777
0428,1.2,1.2,0428,"Largs, 62 Main St",55.79390294,-4.868574454
5780,1.45,1.45,5780,"Richmond, Richmond Railway Stn",51.46326036,-0.301460594
2045,1.2,1.2,2045,"Frinton-On-Sea, 66 Connaught Ave",51.83270183,1.245380397
5295,1.2,1.2,5295,"Glasgow, UB1 Glasgow Fort",55.87196636,-4.138235967
2100,1.2,1.2,2100,"Huddersfield, 39 New St",53.64526878,-1.782734673
1686,1.2,1.2,1686,"Bradford, U19C Forster Square RP",53.8011135,-1.75373388
3506,1.2,1.2,3506,"Walsall, U12A Saddlers SC",52.58361738,-1.983436856
5981,1.2,1.2,5981,"Mold, UA Chester Rd",53.167566422481,-3.134574450049
5082,1.45,1.45,5082,"London, Arch 1 Dwgte Hill, Cannon St Stn",51.51116163,-0.090777036
1868,1.2,1.2,1868,"Glasgow, 1111 Argyle St",55.86461437,-4.28393885
5578,1.2,1.2,5578,Greggs @ Asda Boldon,54.94799255,-1.461869133
0795,1.2,1.2,0795,"Hanworth, 8 Market Pde",51.44034156,-0.387316069
1887,1.2,1.2,1887,"Swansea, 51 Queensway",51.64290974,-3.986947059
6211,1.4,1.4,6211,Greggs @ Sainsbury's Arnold,52.99951944,-1.135547612
0516,1.2,1.2,0516,"Kingstanding, 625 Kingstanding Rd",52.55231278,-1.884183883
6138,1.2,1.2,6138,"Sheffield, U6 Hillsborough Exchange SC",53.40347,-1.50131
1307,1.2,1.2,1307,"Derby, 40 Cornmarket",52.92259525,-1.476753652
3785,1.2,1.2,3785,"Huddersfield, Leeds Road RP",53.65752443,-1.769194865
0900,1.2,1.2,0900,"Bishop Auckland, U2 Newgate SC",54.664404888739,-1.676123071536
2194,1.2,1.2,2194,"High Holborn, 5 High Holborn",51.51843282,-0.111664029
0003,1.2,1.2,0003,"Ashington, 32 Station Rd",55.18313335,-1.570977237
5485,1.2,1.2,5485,"Chorley, U1 Calder House, Preston Rd",53.66253658,-2.6316809
2340,1.2,1.2,2340,"Huddersfield, Bus Station",53.645788,-1.7865004
1096,1.2,1.2,1096,"Prestonpans, 135 High St",55.95924787,-2.984741993
3551,1.2,1.2,3551,"York Uni, U4 Heslington East Campus",53.95049939,-1.029679866
6246,1.2,1.2,6246,"Liscard, 16 Liscard Way",53.419317127294,-3.043128142457
5939,1.2,1.2,5939,"Tenby, 44 High Street",51.67199353,-4.699524641
0392,1.2,1.2,0392,"Huyton, 45 Derby Rd",53.411786075344,-2.839224127762
0238,1.2,1.2,0238,"Batley, 73 Commercial St",53.71360382,-1.631755403
1350,1.2,1.2,1350,"Burnley, 31 The Mall, Charter Wlk SC",53.790247877119,-2.244191615514
3697,1.2,1.2,3697,"Belfast, U3 Dargan Rd, Duncrue Serv Ctr",54.62929658,-5.913718857
2069,1.2,1.2,2069,"Preston, U4 Tulkth Mill RP, Blackpool Rd",53.77190543,-2.723644224
2439,1.2,1.2,2439,"Linwood, U4 Bridge St",55.84831327,-4.48932718
1645,1.2,1.2,1645,"Thornliebank, 77 Main St",55.80757174,-4.316363543
1983,1.2,1.2,1983,"Harlow, 1A Broadwalk",51.77078403,0.094150204
0691,1.2,1.2,0691,"South Woodford, 168 George Ln",51.59390179,0.024717503
3814,1.2,1.2,3814,"Milton Keynes, Westcroft District Ctr",52.00450328,-0.794767664
1829,1.2,1.2,1829,"Blackpool, Houndshill SC",53.8153,-3.05413
5539,1.2,1.2,5539,"Waterloo, U1, 93 Lower Marsh",51.50145,-0.11154
2213,1.2,1.2,2213,"Pontardawe, 70 Herbert St",51.71953645,-3.849672201
2090,1.2,1.2,2090,"Warwick, UN Leamington SP",52.27972379,-1.549099323
0557,1.2,1.2,0557,"Wednesfield, 62 High St",52.59999487,-2.082128977
0107,1.2,1.2,0107,"Sunderland, U1 Union St",54.90677877,-1.383141879
1346,1.2,1.2,1346,"Staines, 60 High St",51.43426142,-0.511381586
1203,1.2,1.2,1203,"Rugeley, 23 Lower Brook St",52.75971339,-1.935644906
0941,1.2,1.2,0941,"Warrington, U88 Golden Sq SC",53.39022606384,-2.595429757673
4902,1.2,1.2,4902,"Glasgow, U5, Level 2 Buchanan Galleries",55.86232844,-4.253157268
0042,1.2,1.2,0042,"Slough, 223 High St",51.50816249,-0.589415833
3843,1.2,1.2,3843,"Torquay, U20 Union Square SC",50.467342038443,-3.529231427888
6342,1.2,1.2,6342,"Glasgow, 319 Byres Rd",55.87656137886,-4.292453469396
3510,1.2,1.2,3510,"Ystradgynlais, 34 Heol Eglwys",51.77744173,-3.758482059
1038,1.2,1.2,1038,"Basildon, 54 Town Sq",51.56992017,0.457284675
1468,1.2,1.2,1468,"Gateshead, Metro Pk West, Gibside Way",54.96180838,-1.678052341
5581,1.2,1.2,5581,Greggs @ Asda Corby,52.49647077,-0.681143836
2244,1.2,1.2,2244,"Westmead, U19 Wesmead IE",51.56220497,-1.816717454
1891,1.2,1.2,1891,"Stockton, U6A Portrack TP",54.57665036,-1.282772164
0853,1.2,1.2,0853,"Abbey Wood, 7 Wilton Rd",51.49013729,0.12116388
0150,1.2,1.2,0150,"Dumbarton, 81 High St",55.94309082,-4.571128397
5352,1.2,1.2,5352,"Garforth, U2A East Side RP, Aberford Rd",53.797481257171,-1.376785267606
0015,1.2,1.2,0015,"Brandon, U2 Brandon SC",54.750978005078,-1.630611009547
5647,1.2,1.2,5647,"Worcester, 59 High St",52.19270011,-2.22087535
4955,1.45,1.45,4955,"Birmingham, U12 New Street Station",52.478,-1.89911
0916,1.2,1.2,0916,"Penge, 139 High St",51.41498963,-0.052398438
3793,1.2,1.2,3793,"Sunderland, 18 Fawcett St",54.90619365,-1.38153433
0852,1.2,1.2,0852,"Wrexham, 38 Regent St",53.04693702,-2.996575596
1310,1.2,1.2,1310,"Windermere, 19 Crescent Rd",54.37844829,-2.905564801
4954,1.2,1.2,4954,"Manchester, 15A City Tower, Parker St",53.48009778,-2.237778905
0917,1.2,1.2,0917,"Petersfield, 23 Chapel St",51.00503667,-0.938227939
3842,1.2,1.2,3842,"Barnstaple, 61 High St",51.0819775,-4.061423
5095,1.2,1.2,5095,"Derby, U13 Eagle Park, Alfreton Rd",52.93844778,-1.469440863
1486,1.2,1.2,1486,"Bristol, Cabot Circus, 110 The Horsefair",51.4585573,-2.587036026
5996,1.2,1.2,5996,Greggs @ Tesco Walkden,53.5259,-2.4011
5979,1.2,1.2,5979,"Cheadle, 67 High St",53.3942294,-2.216238621
1193,1.2,1.2,1193,"Wimbledon, 17 Wimbledon Bridge",51.4210438,-0.206537777
2245,1.2,1.2,2245,"Bromsgrove, 104 High St",52.33550197,-2.059959902
5580,1.2,1.2,5580,Greggs @ Asda Eastlands,53.48315422,-2.192938539
0278,1.2,1.2,0278,"Leeds, 71 Albion St",53.7981265,-1.545224694
5754,1.2,1.2,5754,"Blackburn, UC Crabtree St",53.75020744,-2.460281375
2091,1.2,1.2,2091,"Llanishen, U9A Cardiff BP",51.52254437,-3.195224719
0556,1.2,1.2,0556,"Wednesbury, 14 Union St",52.55265,-2.020361
1347,1.2,1.2,1347,"Sheffield, 61 The Moor",53.3763782,-1.4725112
1717,1.2,1.2,1717,"Portsmouth, 78 London Rd",50.81533553,-1.07940684
1202,1.2,1.2,1202,"Willenhall, 36 The Square",52.61264111,-2.036477681
0940,1.2,1.2,0940,"Wickford, 26 High St",51.61277664,0.520937815
0413,1.2,1.2,0413,"Norris Green, 17 Broadway",53.44200524,-2.930131672
4903,1.2,1.2,4903,"Harrow, 51 St Anns Rd",51.58137357,-0.337429978
0043,1.2,1.2,0043,"Gosforth, 133 High St",55.00457923,-1.620373189
5241,1.2,1.2,5241,"Spalding, U4, 1 Hugh Close",52.80937985,-0.14128836
2357,1.2,1.2,2357,"Cheltenham, Uj Gallagher RP",51.91811248,-2.103080904
0690,1.2,1.2,0690,"Harold Hill, Romford, 4 Farnham Rd",51.60683358,0.218423421
5538,1.2,1.2,5538,"Pontyclun, UD1 Coedcae Lane IE",51.53186248,-3.401630277
2212,1.2,1.2,2212,"Airdrie, 22 High St",55.86837495,-3.98501721
6251,1.2,1.2,6251,Greggs @ Tesco Extra Dundee,56.48289,-2.99263
0813,1.2,1.2,0813,"Loughborough, 15 Market Pl",52.77206621,-1.20647227
5742,1.4,1.4,5742,"Bradford, 465 Rooley Lane Drive Thru",53.774306380353,-1.730049840878
2068,1.2,1.2,2068,"Stockport, 23 Warren St",53.41277193,-2.157194648
0055,1.2,1.2,0055,"Leeds, 21 Kirkgate",53.79699851,-1.540556456
0405,1.2,1.2,0405,"Manchester, 16 Gateway House",53.47774,-2.23185
1644,1.2,1.2,1644,"Stretford, U6 Arndale CTR",53.445676389342,-2.309420144081
3679,1.2,1.2,3679,"Trowbridge, 38 The Shires SC",51.32034117,-2.209041724
1214,1.2,1.2,1214,"Lewisham, 114 High St",51.46214511,-0.010559188
0686,1.2,1.2,0686,"Carlisle, 24 Scotch St",54.89618953,-2.935763525
1994,1.2,1.2,1994,"Glasgow, 453 Paisley Rd",55.8535788,-4.277755162
5484,1.2,1.2,5484,"Talke, Congleton Rd",53.08194537,-2.261243973
1078,1.2,1.2,1078,"Louth, 16 Market Pl",53.36619568,-0.004313207
1582,1.2,1.2,1582,"Wellingborough, U13A Swansgate CTR",52.301654,-0.692242
0239,1.2,1.2,0239,"Bingley, 5 Rise SC",53.84696557,-1.836477497
5715,1.2,1.2,5715,"Saltash, U2 Moorlands TE, Channon Rd",50.41846554,-4.235432151
5345,1.2,1.2,5345,"Stretford, U11 Trafford Ctr, Regent Cres",53.46654,-2.35093
1756,1.2,1.2,1756,"Quinton, 524 Hagley Rd Wst",52.46355904,-1.996849165
3784,1.2,1.2,3784,"Leeds, Belgrave RP, Town St",53.80695276,-1.662257228
0901,1.2,1.2,0901,"Haywards Hth, 28 South Rd",50.99649414,-0.101380704
1613,1.2,1.2,1613,"Carlisle, U1 Kingstown IE",54.92582082,-2.947567188
0452,1.2,1.2,0452,"Warrington, U27 Birchwood SC",53.41421502,-2.527271655
2195,1.2,1.2,2195,"Peckham, U8 Aylesham CTR",51.47253306,-0.069592634
3507,1.2,1.2,3507,"Newcastle, U2 Wellbar Central",54.9739203,-1.619270943
5980,1.2,1.2,5980,"Bolton, UA, Bolton Gate RP",53.5849834,-2.4270121
1490,1.2,1.2,1490,"Leicester, 20 Belgrave Gate",52.63696896,-1.131434677
5083,1.2,1.2,5083,"High Wycombe, 186 New Rd",51.62041485,-0.784544755
3854,1.2,1.2,3854,"Plymouth, 54 New George St",50.37157437,-4.143322889
1869,1.2,1.2,1869,"Lichfield, 30 Market St",52.682899488861,-1.82876657008
5579,1.2,1.2,5579,Greggs @ Asda Wigan,53.54317,-2.65082
1886,1.2,1.2,1886,"Bristol, 44 Ridingleaze",51.50163847,-2.658681537
6210,1.4,1.4,6210,Greggs @ Sainsbury's Biggleswade,52.09392596,-0.272351764
1238,1.2,1.2,1238,"Aberdeen, 55 Union St",57.14705434,-2.096629948
1668,1.2,1.2,1668,"Leamington Spa, 19 The Parade",52.2925701,-1.535638379
3655,1.2,1.2,3655,"Bristol, Kingswood, U1 Kings Chase SC",51.46292726,-2.509319867
1392,1.2,1.2,1392,"Kettering, 57 High St",52.39948355,-0.728479003
0429,1.2,1.2,0429,"Sale, 45 School Rd",53.42511563,-2.322881655
5781,1.4,1.4,5781,"Stoke on Trent, Springflds RP Drive Thru",52.9955529,-2.2089413
0079,1.2,1.2,0079,"North Ormesby, 40 Kings Rd",54.57061074,-1.213065994
0583,1.2,1.2,0583,"Caerphilly, 47 Cardiff Rd",51.57379033,-3.220435161
0096,1.2,1.2,0096,"Sunderland, 220 Chester Rd",54.90168142,-1.403941359
2101,1.2,1.2,2101,"Wakefield, 77 Stanley Rd",53.68560199,-1.489428221
0995,1.2,1.2,0995,"Harrogate, 7 Cambridge Rd",53.99353516,-1.541508977
5017,1.2,1.2,5017,"Birmingham, U4205A Watersde Ctr, Birm BP",52.46753017,-1.721606245
0215,1.2,1.2,0215,"Penicuik, 21 John St",55.827427173763,-3.221808583211
5447,1.2,1.2,5447,"Northampton, U2 The Causeway",52.244042,-0.809489
1957,1.2,1.2,1957,"Bristol, U1 St James Crt",51.45892308,-2.592710178
5914,1.2,1.2,5914,"Blaydon, Bridge St",54.966068044095,-1.716454088793
1404,1.2,1.2,1404,"Prestwick, 85 Main St",55.49964902,-4.610639838
1541,1.2,1.2,1541,"Sheffield, 6 Fargate",53.38233757,-1.468793341
5851,1.2,1.2,5851,"Wells, 37 High St",51.20848272,-2.647162047
0350,1.2,1.2,0350,"Liverpool, Belle Vale SC",53.391050679906,-2.858935753127
1812,1.2,1.2,1812,"Wakefield, U36 Trinity Wlk SC",53.68494742,-1.496843937
0887,1.45,1.45,0887,"Earls Court, 183 Earls Court Rd",51.4923194,-0.192926691
6050,1.2,1.2,6050,Greggs @ Tesco Birkenhead,53.40807,-3.07026
1795,1.2,1.2,1795,"Sheffield, Meadowhall SC, The Gallery",53.41518654,-1.411337943
0868,1.2,1.2,0868,"Chatham, U58 Pentagon SC",51.38401029,0.52512824
1280,1.2,1.2,1280,"Leeds, U39 Merrion SC",53.80181379,-1.544536277
6115,1.2,1.2,6115,"Birkenhead, 1 St John's Square",53.3895638,-3.0251413
4981,1.2,1.2,4981,"Oldbury, U14 Oldbury Green RP",52.50431275,-2.021981002
2156,1.2,1.2,2156,"Hall Green, 1182 Stratford Rd",52.43741039,-1.846570524
0491,1.2,1.2,0491,"Coventry, 118 Jubilee Cres",52.43026022,-1.516842838
5369,1.4,1.4,5369,"Chelmsford, 4 Eagle Wy Drive Thru",51.77181,0.488
1003,1.2,1.2,1003,"Mitcham, 11 Fairgreen Pde",51.40528615,-0.164418219
5943,1.2,1.2,5943,"Tewkesbury, 97 High St",51.99542253,-2.156108881
0612,1.2,1.2,0612,"Leeds, Central Bus Station",53.796790766404,-1.53582225527
1900,1.2,1.2,1900,"Bridgwater, Carvers Mill BP, Wylds Rd",51.13867567,-2.996867917
0242,1.2,1.2,0242,"Erdington, 237 High St",52.5227494,-1.841951672
3878,1.2,1.2,3878,"Kidderminster, U2 Foley Dr",52.36313747,-2.266259772
1845,1.2,1.2,1845,"Portishead, 66 High St",51.48316032,-2.769220578
0307,1.2,1.2,0307,"Leeds, 3 Middleton Pk Ave",53.74760986,-1.547517162
5806,1.2,1.2,5806,"Wokingham, USU03 Peach St",51.41035,-0.83277
1516,1.2,1.2,1516,"Welwyn Garden City, 30 Stonehills",51.80210423,-0.205647568
1279,1.2,1.2,1279,"Grimsby, 47 Victoria St",53.5656316,-0.085386202
6046,1.2,1.2,6046,"Patchway, FF3 The Mall @ Causeway SC",51.52492155,-2.595911207
1783,1.45,1.45,1783,"Manchester, Airp T1 Arrivals",53.361349734982,-2.273660588478
0891,1.2,1.2,0891,"Feltham, 22 The Centre",51.44672629,-0.409982083
3614,1.2,1.2,3614,"Croydon, 51 North End Rd",51.37518593,-0.101185595
6416,1.2,1.2,6416,Greggs @ Tesco Baldock,51.98530073087,-0.185809325426
2455,1.2,1.2,2455,"Watford, 5 The Parade, High St",51.65696449,-0.398152362
0038,1.2,1.2,0038,"Ferryhill, 17 Market St",54.68907154,-1.556099396
2005,1.2,1.2,2005,"Shard End, 3 Ownall Rd",52.49456821,-1.777761868
0487,1.2,1.2,0487,"Birmingham, 6 Watford Rd",52.41630103,-1.930270659
5685,1.4,1.4,5685,"South Bank, U2 Middlesbrough Rd Dr Thru",54.5792,-1.18121
4997,1.45,1.45,4997,"Crawley, Three Bridges Railway Stn",51.118123905369,-0.161636411224
6103,1.2,1.2,6103,Greggs @ Tesco Musselburgh,55.93876,-3.05535
3881,1.2,1.2,3881,"Lowestoft, U5C Gateway RP",52.44647889,1.724130526
5056,1.2,1.2,5056,"Newport, 141 Caerleon Rd",51.59609102,-2.982722282
2269,1.2,1.2,2269,"Richmond, 35 The Quadrant",51.46228872,-0.302611766
5406,1.2,1.2,5406,"Lincoln, U3 St Peter At Arches, High St",53.22987007,-0.540016412
1445,1.2,1.2,1445,"Kiddminster, U6 Weavers Whf RP",52.387018739283,-2.249014521862
1150,1.2,1.2,1150,"Evesham, 14 Bridge St",52.09242732,-1.946547937
3497,1.2,1.2,3497,"Newcastle, 44 Blackett St",54.974238891569,-1.614346312501
0311,1.2,1.2,0311,"Penistone, 1 High St",53.52519027,-1.630707114
1853,1.2,1.2,1853,"Rochdale, Yorkshire St",53.61822254,-2.158025622
2286,1.2,1.2,2286,"Bromsgrove, 53 Sherwood Rd",52.31759237,-2.061610212
2402,1.2,1.2,2402,"Merthyr Tydfl, 16 Nwmrkt Wlk, Tydfil SC",51.745150732275,-3.380192494682
3706,1.2,1.2,3706,"Bridgend, U7 Bridgend SC, Brackla St",51.50434406,-3.576312017
6154,1.2,1.2,6154,"Norwich, U2B Riverside RP",52.62272,1.30714
0983,1.2,1.2,0983,"Greenwich, 5 Greenwich Church St",51.48083824,-0.009725526
2117,1.2,1.2,2117,"Birmingham, 35 Burtons Way",52.50372828,-1.749423812
5282,1.2,1.2,5282,"Islington, 31 Chapel Market",51.53369175,-0.108225814
5778,1.2,1.2,5778,"Greenwich, Peninsular RP, Bugsby's Wy",51.48962898,0.02008353
3585,1.2,1.2,3585,"Norwich, U2 Harford Place, Hall Rd",52.6070515,1.288254413
5451,1.2,1.2,5451,"Cardiff, Cardiff University, Park Pl",51.48829523,-3.1783434
2394,1.2,1.2,2394,"Wakefield, U2 Westgate Station",53.68295,-1.50567
0203,1.2,1.2,0203,Larkhall 73 Union St,55.73975988,-3.973601852
5514,1.2,1.2,5514,"Perth, U1 Glenearn Rd",56.3861085,-3.4372101
1804,1.2,1.2,1804,"Pontyclun, 48 Talbot Rd",51.53714385,-3.384175979
5144,1.2,1.2,5144,"Leicester, 285 Abbey Ln",52.65829186,-1.133264086
6292,1.2,1.2,6292,"Strathaven, 24 Common Green",55.67676106795,-4.066041562175
1520,1.2,1.2,1520,"Kingswinford, Bay 2 Pensnett IE",52.503247252184,-2.151002182909
0331,1.2,1.2,0331,"Pontefract, 27 Barnsley Rd",53.59485427,-1.290069673
1873,1.2,1.2,1873,"Redditch, Washford TP",52.28546134,-1.905117752
5099,1.2,1.2,5099,"Bearsden, 124 Drymen Rd",55.92019545,-4.334105911
0761,1.2,1.2,0761,"Worcester Park, 125 Central Rd",51.37885437,-0.242469492
5076,1.2,1.2,5076,"Alfreton, U1B Nottingham Rd",53.08712864,-1.375568453
2249,1.2,1.2,2249,"Gorleston-On-Sea, 147 High St",52.57902374,1.727734486
5426,1.2,1.2,5426,"Chorley, 18 Market Wlk",53.65334,-2.62946
1035,1.2,1.2,1035,"West Norwood, 324 Norwood Rd",51.43529115,-0.104181974
6123,1.2,1.2,6123,"Waltham Cross, 121A High St",51.6863354,-0.033415696
3771,1.2,1.2,3771,"Woking, U136 Woking SC, 33 Wolsey Wlk",51.319496296218,-0.558937862181
1259,1.2,1.2,1259,"Taunton, 8 North St",51.01588712,-3.103487002
1609,1.2,1.2,1609,"Bridgend, 11B Vlg Farm IE",51.52547284,-3.691509165
2025,1.2,1.2,2025,"Congleton, 1 Duke St",53.16369576,-2.214068918
0018,1.2,1.2,0018,"North Shields, 40 Bedford St",55.00883711,-1.446838811
5534,1.2,1.2,5534,"Flint, UA Flintshire RP",53.25060863,-3.138117972
3819,1.2,1.2,3819,"Stevenston, U3 Ashenyards RP",55.64894555,-4.731632454
5867,1.2,1.2,5867,"Bristol, U9A Avonmeads RP",51.44818015,-2.561095116
1577,1.2,1.2,1577,"Biggleswade, 1A Market Sq",52.08656516,-0.265262505
5922,1.2,1.2,5922,"Culverhouse Cross, Brooklands RP",51.46421557,-3.27021283
1961,1.2,1.2,1961,"Derby, Pride Park Stadium Ground Fl",52.91587202,-1.447345498
0389,1.2,1.2,0389,"Manchester, U6 Harpurhey SC",53.51266988,-2.212042388
2072,1.2,1.2,2072,"Bangor, 266 High St",53.22712581,-4.124713431
2422,1.2,1.2,2422,"Crook, U3 The Royal Corner",54.71497763,-1.746379927
3663,1.2,1.2,3663,"Pudsey, 14 Church Ln",53.79590903,-1.663932872
1561,1.2,1.2,1561,"Tunbridge Wells, 6 Grosvenor Rd",51.13475894,0.263694101
5488,1.45,1.45,5488,"London, Shepherds Bush Tube Station",51.50485399873,-0.21861457823
1998,1.2,1.2,1998,"Nottingham, U7 Midland Way RP",52.95597088,-1.18300881
5037,1.2,1.2,5037,"Cramlington, U15a Nelson Park IE",55.09731047,-1.609073523
2208,1.2,1.2,2208,"Scarborough, 6 Westborough",54.281985686256,-0.401058460615
0235,1.2,1.2,0235,"Alfreton, 1 Institute Lane",53.09707443,-1.388198606
0665,1.2,1.2,0665,"Bromley, 439 Bromley Rd",51.42535846,-0.004523875
1977,1.2,1.2,1977,"Potters Bar, 114 Darkes Lane",51.69824342,-0.191258905
1424,1.2,1.2,1424,"Newcastle, U1B Haymarket",54.976860791214,-1.614443796632
3730,1.2,1.2,3730,"Cardiff, 34 Queen St",51.48103503,-3.176370233
1648,1.2,1.2,1648,"Chatham, 176 High St",51.38264334,0.524926259
2434,1.2,1.2,2434,"Stretford, U1B Trafford Pk",53.46552672,-2.32344082
0059,1.2,1.2,0059,"Gateshead, Metrocentre, Red Mall",54.957640546294,-1.668555247618
2064,1.2,1.2,2064,"Yardley, U9 Swan SC",52.4628218,-1.8138876
0777,1.2,1.2,0777,"Smethwick, 573 Bearwood SC",52.47483353,-1.969094563
1865,1.2,1.2,1865,"Sittingbourne, 95 High St",51.34008476,0.735165802
1166,1.2,1.2,1166,"Liverpool, 565 West Derby Rd",53.42469149,-2.932990925
1536,1.2,1.2,1536,"Dunstable, U18 Quadrant SC",51.887133293792,-0.520569968559
1473,1.2,1.2,1473,"Mansfield, 19 Market Pl",53.14458938,-1.196965134
1189,1.2,1.2,1189,"Leeds, Seacroft Green SC",53.82257651,-1.460628398
5963,1.2,1.2,5963,"Halstead, 68 High Street",51.944161,0.635571
1920,1.2,1.2,1920,"Prestwich, U10 Radius Retail",53.53340105,-2.283793337
0262,1.2,1.2,0262,"Sheffield, 31 Bellhouse Rd",53.41874666,-1.447293714
0798,1.2,1.2,0798,"Ipswich, 35 Upper Brook St",52.05662622,1.156393004
0848,1.2,1.2,0848,"West Bromwich, Sandwell CTR",52.51749,-1.99315
3767,1.2,1.2,3767,"Chesterfield, 8 Burlington St",53.23597143,-1.426851308
2033,1.2,1.2,2033,"Maryhill, U8 Maryhill SC",55.887252843697,-4.286521866263
2463,1.2,1.2,2463,"Bristol, U5 Gloucester Rd Nth",51.50274799,-2.57929739
6288,1.2,1.2,6288,"Tyldesley, U4 Parr Bridge RP, Msley Rd",53.511184,-2.431355
5277,1.2,1.2,5277,"Hull, 626 Anlaby Rd",53.74383388,-0.386190659
2048,1.2,1.2,2048,"Kilwinning, 72 Main St",55.654154,-4.697764
4935,1.2,1.2,4935,"Aberdeen, 65A Wellington Rd",57.12972259,-2.091979023
1664,1.2,1.2,1664,"Leeds, 68 Merrion St",53.80102118,-1.543532812
2273,1.2,1.2,2273,"Warrington, Winwick Rd",53.41436585,-2.596900045
3527,1.2,1.2,3527,"Telford, UA4 Stafford Park 4",52.67634457,-2.423779697
1263,1.2,1.2,1263,"Daventry, U20 Bowen Sq",52.25734156,-1.161484289
0921,1.2,1.2,0921,"Rochford, 12 West St",51.58246415,0.707005803
0188,1.2,1.2,0188,"Glasgow, 28 West Nile St",55.86107819,-4.255119218
0022,1.2,1.2,0022,"Cramlington, U23 Manor Wlks SC",55.08528,-1.58956
5735,1.4,1.4,5735,"Dundee, U9 The Stack Drive Thru",56.47452032,-3.0040368
0537,1.2,1.2,0537,"Liverpool, 17 Castle St",53.40656039,-2.990809539
1449,1.2,1.2,1449,"Kelso, 47 The Square",55.59888371,-2.433586647
3531,1.2,1.2,3531,"Barrhead, 186 Main Street",55.80120496,-4.387956723
2009,1.2,1.2,2009,"Littlehampton, 53 High St",50.80955652,-0.541972027
2459,1.2,1.2,2459,"Wimborne, Ferndown IE, 110 Cobham Rd",50.81417298,-1.912663789
1625,1.2,1.2,1625,"Thurrock, U5 Intu Lakeside SC",51.485706,0.283371
3618,1.2,1.2,3618,"Beverley, Unit 9A Flemingate SC",53.8400084,-0.4206332
0937,1.2,1.2,0937,"Wantage, U1 Victoria Cross",51.58843334,-1.426735027
1760,1.2,1.2,1760,"Rustington, 11 Churchill Pde",50.81073831,-0.5071782
0872,1.2,1.2,0872,"Chiswick, 364 Chiswick High Rd",51.4926212,-0.26334155
1330,1.2,1.2,1330,"Romford, 16 Western Rd",51.57698797,0.183163891
5723,1.2,1.2,5723,"Washington, U4 Parsons Rd IE, Parsons Rd",54.908894432014,-1.539695247071
2232,1.2,1.2,2232,"Poole, Nuffield IE",50.74150419,-1.977460444
5148,1.2,1.2,5148,"Hinckley, U2, 7 Rainbow Way",52.53399076,-1.374767667
1808,1.2,1.2,1808,"Leeds, 49 Great George St",53.8010333,-1.551421814
5518,1.2,1.2,5518,"Chepstow, U1 Newport Rd",51.63609927,-2.68359948
1672,1.2,1.2,1672,"Workington, U3 Buddle Rd, Clay Flatts IE",54.63485327,-3.562018848
0063,1.2,1.2,0063,"Middlesbrough, 447 Linthorpe Rd",54.56084473,-1.242906367
5774,1.45,1.45,5774,"Hammersmith, U35 Broadway SC",51.492623,-0.224316
0277,1.2,1.2,0277,"Leeds, U1 Boar Lane",53.79576449,-1.544284697
5425,1.2,1.2,5425,"Whitehaven, U5 Bridges RP",54.54464608,-3.585029489
0627,1.2,1.2,0627,"Tonypandy, 37 Dunraven St",51.62171052,-3.453895729
1935,1.2,1.2,1935,"Dover, 71 Biggin St",51.1272777,1.309893275
0762,1.2,1.2,0762,"St Andrews, 116 Market St",56.34031053,-2.797380154
1870,1.2,1.2,1870,"Nottingham, 93 Carrington St",52.94831243,-1.147475159
5560,1.2,1.2,5560,"Chippenham, Hathaway RP",51.46368231,-2.11475357408
5649,1.2,1.2,5649,"Aberdeen, U4 Jesmond Dr",57.191437,-2.121586443
2026,1.2,1.2,2026,"Manchester, Avro Way",53.36159571,-2.28826667
6065,1.2,1.2,6065,Greggs @ Tesco Wrexham,53.0463,-2.98746
0918,1.2,1.2,0918,"Rayleigh, 81 High St",51.58598691,0.60576822
2163,1.2,1.2,2163,"Liverpool, 2A Catharine St",53.4008118,-2.967839288
1962,1.2,1.2,1962,"Peterborough, Orton, U10 Ortongate SC",52.5431066,-0.301677534
1124,1.2,1.2,1124,"Newcastle, 112 West Rd",54.97604567,-1.65499801
5864,1.2,1.2,5864,"Llantwit Major, 2 The Precinct",51.4085627,-3.482904646
5537,1.45,1.45,5537,Leeds Bradford Airport,53.869185,-1.661617
1827,1.2,1.2,1827,"Corby, Rockingham Park LC",52.5083967,-0.705253627
3660,1.2,1.2,3660,"Peacehaven, 165 South Coast Rd",50.79047096,0.00471284
6032,1.2,1.2,6032,"Cleethorpes, 33 St Peters Avenue",53.55956,-0.03168
2421,1.2,1.2,2421,"Castleford, 64 Carlton St",53.726070239074,-1.353030684962
0559,1.2,1.2,0559,"West Bridgford, 28 Central Ave",52.9316953,-1.126661724
1348,1.2,1.2,1348,"Hull, U7 Prospect Ctr",53.74598533,-0.342801948
6248,1.2,1.2,6248,"Cwmbran, 2 Gwent Sq",51.65461592,-3.020604214
1077,1.2,1.2,1077,"Egremont, 42 Main St",54.48168636,-3.528446321
5034,1.2,1.2,5034,"Norwich, U2 Lansdowne Rd",52.66521708,1.279691795
1974,1.2,1.2,1974,"Burgess Hill, U17 Market Place SC",50.95493,-0.13115
0666,1.2,1.2,0666,"Enfield, 9 Bush Hill Pde",51.63658565,-0.081207123
0689,1.2,1.2,0689,"Globe Town, 112 Roman Rd",51.52864389,-0.047721427
1831,1.2,1.2,1831,"Urmston, U9B Eden Square SC",53.44889657,-2.354305541
1562,1.2,1.2,1562,"Hammersmith, 129 King St",51.4924599,-0.230638605
2067,1.2,1.2,2067,"Bury St Edmunds, 30 Cornhill",52.24656135,0.712243488
3676,1.2,1.2,3676,"Dundee, 80 High St",56.46141627,-2.969202098
3699,1.2,1.2,3699,"Swindon, 19 The Parade SC",51.56214047,-1.784060177
3733,1.45,1.45,3733,"Ipswich, U3 Ipswich Station, Burrwell Rd",52.05061112,1.144260571
2088,1.2,1.2,2088,Greggs @ Tesco Newport RP,51.575745201574,-2.946719606171
2122,1.2,1.2,2122,"Edinburgh, 162 Restalig Rd Sth",55.96138205,-3.151938772
1923,1.2,1.2,1923,"Neath, 55 Wind St",51.66361116,-3.804020907
5433,1.2,1.2,5433,"Pelaw, 1 Brookfield Tce",54.95383313,-1.544342211
5599,1.2,1.2,5599,"Sunderland, U4 Salterfen Park, Ryhope Rd",54.87714,-1.36051
1889,1.2,1.2,1889,"Dundee, 134 Strathmartin Rd",56.47431632,-2.98031167
1020,1.2,1.2,1020,"South Norwood, 89 High St",51.39829252,-0.076399286
1470,1.2,1.2,1470,"Cardiff, 140 Queen St",51.48291711,-3.171233249
5960,1.2,1.2,5960,Spennymoor U23 Festival Wlk,54.69979,-1.60183
5825,1.45,1.45,5825,"Wimbledon, U2BH Wimbledon Railway Stn",51.42105614,-0.20651192
3508,1.4,1.4,3508,"Crewe, Beswick Dr",53.09384823,-2.414548461
1866,1.2,1.2,1866,"Ashford, 94 High St",51.1496961,0.871165815
0148,1.2,1.2,0148,"Dalkeith, 17 Jarnac Crt",55.89378281,-3.069940476
3764,1.2,1.2,3764,"Northampton, U2 The Brackmills Hub",52.21649304,-0.870391129
1759,1.2,1.2,1759,"Tiverton, 1 Bampton St",50.90317433,-3.486123152
3573,1.4,1.4,3573,"Sheldon, Whirlwind SS, New Coventry Rd",52.45707407,-1.796075477
3820,1.2,1.2,3820,"Bangor, 70 Main St",54.66137115,-5.668195738
2362,1.2,1.2,2362,"Newport, U1 Usk Way",51.58065839,-2.985440536
5448,1.2,1.2,5448,"Scunthorpe, U1 Glebe Rd",53.59451627,-0.648080567
6264,1.2,1.2,6264,"Fareham, 97 West St",50.852699450694,-1.179960012286
0133,1.2,1.2,0133,"Bonnyrigg, 44 High St",55.87576074,-3.106799568
0563,1.2,1.2,0563,"Bow, 628 Roman Rd",51.53400601,-0.026926113
5761,1.2,1.2,5761,"Chelmsford, U16 Hgh Chlmr SC, Exchnge Wy",51.73339972919,0.472753599417
0099,1.2,1.2,0099,"Fulwell, 29 Sea Rd",54.92967056,-1.380082101
0830,1.2,1.2,0830,"Orpington, 113 Cotmandene Cres",51.40363678,0.106063657
0975,1.2,1.2,0975,"South Ruislip, 708 Field End Rd",51.5611259,-0.381279944
6008,1.2,1.2,6008,"Tewkesbury, Tewkesbury BP, Intl Drive",52.00048856,-2.125082883
1237,1.2,1.2,1237,Rumney. 767 Newport Rd,51.50902983,-3.132237279
0076,1.2,1.2,0076,"Newcastle, 3 St Marys Pl",54.97770573,-1.612995808
5624,1.2,1.2,5624,"Tamworth, U9 Tame TP, Ninian Way",52.60725,-1.67454
4936,1.2,1.2,4936,"Lanark, U2, 40 High St",55.67339709,-3.778413799
2335,1.2,1.2,2335,"Bedwas, U5A Bedwas IE",51.59085817,-3.204162447
0308,1.2,1.2,0308,"Morley, 13 Windsor Crt",53.745320879777,-1.60221159884
3877,1.2,1.2,3877,"Sutton in Ashfield, Castlewood BP",53.11097168,-1.298355878
1519,1.2,1.2,1519,"Farnborough, 68 Queensmead",51.29170015,-0.756193871
3524,1.2,1.2,3524,"Castleford, Castlford Bus Stn, Alboin St",53.7249151,-1.357408776
1149,1.2,1.2,1149,"Port Talbot, U9 Aberafan SC",51.59698394,-3.785557963
2270,1.2,1.2,2270,"East Ham, 95 High St North",51.53578538,0.052367241
1325,1.2,1.2,1325,"Walthamstow, 1 Palace Pde",51.58417851926,-0.024307057815
1775,1.2,1.2,1775,"Horwich, Middlebrook RP",53.58471722,-2.537343557
0867,1.2,1.2,0867,"Canvey Island, 30 Furtherwick Rd",51.52238085,0.59225309
5366,1.2,1.2,5366,"Doncaster, U114 Frenchgate SC",53.522435684282,-1.137516525021
0164,1.2,1.2,0164,"Edinburgh, Davidson Mains, 21 Main St",55.9655599,-3.273863704
5389,1.2,1.2,5389,"Levenshulme, 1083 Stockport Rd",53.43651062,-2.18424856
5673,1.2,1.2,5673,"Bristol, UA1B Gallagher RP",51.44596,-2.49906
1260,1.2,1.2,1260,"Keynsham, 42A High St",51.41574374,-2.498701989
0888,1.2,1.2,0888,"Haverhill, 30 High St",52.08134381,0.440237011
1630,1.2,1.2,1630,"Shawlands, 15 Kilmarnock Rd",55.82967007,-4.281664068
3498,1.2,1.2,3498,"Glenrothes, 31 Lyon Wy",56.196044,-3.172062
6360,1.2,1.2,6360,"Ipswich, U6 Futura RP, James Bennett Way",52.0332383616,1.201780376114
3532,1.2,1.2,3532,"Newtown, 25 High St",52.51501536,-3.315453093
2289,1.2,1.2,2289,"Bury, The Rock SC, 22 Central St",53.59482306,-2.291614723
1919,1.2,1.2,1919,"Tow Law, 47A High St",54.74605916,-1.81499975
4998,1.2,1.2,4998,"Bracknell, U34 Braccan Wlk",51.41608855,-0.749700482
5370,1.2,1.2,5370,"Cirencester, U7 Cirencester TP",51.70686384,-1.960101077
0488,1.2,1.2,0488,"Middleton, U28 Middleton SC",53.548241384223,-2.201051034763
0522,1.2,1.2,0522,"Northfield, U8 Northfield SC",52.41707451,-1.968239955
5720,1.2,1.2,5720,"Blyth, U3 South Beach RC, Links Rd",55.109349865955,-1.501252868329
0871,1.2,1.2,0871,"Chessington, 332 Hook Rd",51.36720385,-0.307019182
1763,1.2,1.2,1763,"Dunfermline, Turnstone Rd",56.06160853,-3.406151501
1299,1.2,1.2,1299,"Southend, 100 High St",51.53777386,0.713634465
0934,1.2,1.2,0934,Wallingford 5 Market Pl,51.59978268,-1.124435872
1626,1.2,1.2,1626,"Macclesfield, Grosvenor CTR",53.2603185,-2.12619514
0037,1.2,1.2,0037,"Blackheath, 28 Tranquil Vale",51.46628134,0.008950364
4977,1.2,1.2,4977,"Skelton, Skelton RP, Pheasant Fields Ln",54.56693824,-0.961666353
0467,1.2,1.2,0467,"Arnold, 51 Front St",53.00262208,-1.128430704
0349,1.2,1.2,0349,"Atherton, 67 Market St",53.52386326,-2.493461188
2374,1.2,1.2,2374,"Coventry, U7 Cannon Park SC",52.38813017,-1.554734162
0719,1.2,1.2,0719,"Dunfermline, U3 Kingsgate SC",56.072391304342,-3.459578833998
3565,1.2,1.2,3565,"Newcastle, 39 Clayton St",54.97267605,-1.615851897
1364,1.2,1.2,1364,"Falkirk, 163 High St",55.998667007948,-3.781913589507
1734,1.2,1.2,1734,"Stroud, 54 High St",51.74533687,-2.215817159
5327,1.2,1.2,5327,"Edwalton, U3 Zambra Crt",52.90218435,-1.122549009
2118,1.2,1.2,2118,"Telford, U1 Hadley Centre, High St",52.7054526,-2.485277828
0125,1.2,1.2,0125,"Chadderton, U3A Shopping PCT",53.54576559,-2.140953302
0430,1.2,1.2,0430,"Sale, 162 Northendon Rd",53.4199396,-2.304263749
4920,1.4,1.4,4920,"Irlam Gateway SS Drive Thru, Lverpool Rd",53.45672618,-2.401233515
5632,1.2,1.2,5632,"Berwick, U5 Loaning Meadows RP",55.78371,-2.0193
5798,1.4,1.4,5798,"Bolton, Logistics North Drive Thru",53.5414733,-2.4560428
1256,1.2,1.2,1256,"Whitehaven, 52 Market Pl",54.54705847,-3.591231107
0447,1.2,1.2,0447,"Swinton, 30 The Pde",53.51238646033,-2.338410408601
5350,1.2,1.2,5350,"Prestatyn, U2, 116 Victoria Rd",53.33656028,-3.416709386
0502,1.2,1.2,0502,"Birmingham, 26 Glebe Farm Rd",52.48847657,-1.793976353
5700,1.2,1.2,5700,"Swansea, U19B Morfa SP",51.64126773,-3.935601931
1939,1.2,1.2,1939,"Uddingston, 319 Old Edinburgh Rd",55.83091873,-4.075599662
5429,1.2,1.2,5429,"Newcastle Under Lyme, U15 Castle Wlk",53.010862,-2.22556
2246,1.2,1.2,2246,"Bristol, 31 Horsefair",51.45824605,-2.590494597
1893,1.2,1.2,1893,"Chesterfield, U3 Lockoford Lane",53.25217287,-1.42363403
1190,1.2,1.2,1190,"Whitehaven, 61 Kings St",54.54846594,-3.589733109
5995,1.2,1.2,5995,Greggs @ Tesco Doncaster,53.49113,-1.13743
2303,1.2,1.2,2303,"Stonehaven, 31 Market Sq",56.96443791,-2.208555949
4900,1.45,1.45,4900,"Upminster, 72 Station Rd",51.55885702,0.250567758
5612,1.2,1.2,5612,"Glasgow, U15 Forge RP",55.85398,-4.21165
5242,1.2,1.2,5242,"Liverpool, 64 Lord St",53.405089277081,-2.987076530683
1201,1.2,1.2,1201,"Borehamwood, 149 Shenley Rd",51.65688469,-0.273974758
3683,1.2,1.2,3683,"Kirkcaldy, U5 The Mercat CTR",56.10940417,-3.15902788
1344,1.2,1.2,1344,"Horsham, 27 West St",51.06305063,-0.331564123
3729,1.2,1.2,3729,"Swindon, 13 Canal Walk",51.56099537,-1.786002082
2092,1.2,1.2,2092,"Southampton, UJ2 Antelope Park",50.90565043,-1.339320819
0105,1.2,1.2,0105,"Romford, 57 South St",51.57705189,0.181899578
1597,1.2,1.2,1597,"Havant, 1 West St",50.85147512,-0.982519853
5887,1.4,1.4,5887,"Carterton, U5 Kipling Court Drive Thru",51.7680325,-1.581695617
0386,1.2,1.2,0386,"West Bromwich, 146 Walsall Rd",52.54470087,-1.983975989
2354,1.2,1.2,2354,"Driffield, 53a Middle St",54.00434099,-0.438187017
0693,1.2,1.2,0693,"Maidstone, 208 Chequers SC",51.272641973213,0.525269498799
1981,1.2,1.2,1981,"Tottenham Hale, Uc1 Tottenham Hale RP",51.587971847816,-0.062306998271
3816,1.2,1.2,3816,"Cardiff, U3 BBC Building, Central Sq",51.4768386,-3.179075178
1578,1.2,1.2,1578,"Nottingham, 3 Beast Market",52.95333795,-1.151667987
6317,1.2,1.2,6317,"Caernarfon, U1 Pool Street",53.1395875,-4.2719649
0056,1.2,1.2,0056,"Low Fell, 487 Durham Rd",54.93607816,-1.599405315
5604,1.2,1.2,5604,"Accrington, The Viaduct, Hyndburn Rd",53.75437999,-2.36907898
4916,1.2,1.2,4916,"New Milton, 9 Old Grn Pde,Christch Rd",50.74726925,-1.664534782
0406,1.2,1.2,0406,"Cardiff, 114 Crwys Rd",51.49644934,-3.180382908
5741,1.2,1.2,5741,"Castlemilk, U27 Castlemilk Arcade",55.80660707,-4.234824443
2084,1.2,1.2,2084,"Paisley, 69 Glasgow Rd",55.84700243,-4.407259599
1702,1.2,1.2,1702,"Brierley Hill, Intu Merryhill, Lwr Mall",52.47985,-2.10972
0810,1.2,1.2,0810,Lincoln 23 Bailgate,53.23584198,-0.53856777
1352,1.2,1.2,1352,"Oldham, U6 Town Sq SC",53.541723105581,-2.113709635223
3695,1.2,1.2,3695,"Belfast, U48 Kennedy Centre, Falls Rd",54.5804183,-5.9774359
1978,1.2,1.2,1978,"Bilston, U1 Roseville PCT",52.54071861,-2.088128635
5192,1.2,1.2,5192,"Edinburgh, U10 Straiton RP, The Terrace",55.885037733162,-3.164765008214
0390,1.2,1.2,0390,"Haslingden, 43 Deardengate",53.70546836,-2.325799444
2207,1.2,1.2,2207,"Northwich, 8 Leicester St",53.26225449,-2.512376371
1581,1.2,1.2,1581,"Livingston, 25 Hawkbrae",55.8977101,-3.53280096
6301,1.2,1.2,6301,"Blantyre, U2 Hamilton Intrntl Tchnlgy Pk",55.78045357,-4.098243186
3553,1.2,1.2,3553,"Huddersfield, U2 Halifax Rd",53.66749752,-1.824135943
5487,1.45,1.45,5487,"Newcastle, U9 Central Station",54.96868114,-1.616952207
5653,1.2,1.2,5653,Greggs @ Tesco Extra Oldham,53.54532,-2.090562
4941,1.2,1.2,4941,"Corby, U34 Corporation St",52.48789652,-0.701267596
3787,1.2,1.2,3787,"Peterborough, U94 Queensgate SC",52.574402352516,-0.245624769904
1610,1.2,1.2,1610,"Oadby, 28 The Parade",52.59918378,-1.083954302
0902,1.2,1.2,0902,"Southampton, Hedge End, 3 Lwr Northam Rd",50.91398453,-1.30310283
6090,1.2,1.2,6090,"Stockton, 3 Mile House, Darlington Lane",54.58110628,-1.336378092
3768,1.2,1.2,3768,"Wakefield, U7 Snowhill",53.69664087,-1.507255448
0514,1.2,1.2,0514,"Kingstanding, 208 Hawthorn Rd",52.54047497,-1.884011619
0144,1.2,1.2,0144,"Edinburgh, 139A St Johns Rd",55.94249659,-3.281581834
1186,1.2,1.2,1186,"Basildon, 44 East Wlk",51.57052446,0.461097953
0797,1.2,1.2,0797,"Huntingdon, 123B High St",52.33017271,-0.182847023
2250,1.2,1.2,2250,"Norwich, 82 Colman Rd",52.62184284,1.262481904
5595,1.2,1.2,5595,"Stanley, U1 Agnes St",54.87188869,-1.69546034
0328,1.2,1.2,0328,"Shipley, 32 Market Sq",53.83356576,-1.777744915
0778,1.2,1.2,0778,"Beccles, 13 Newmarket",52.45743376,1.562762047
5080,1.2,1.2,5080,"Llanelli, U2 Trostre RP, Trostre Rd",51.67869266,-4.133749866
5983,1.2,1.2,5983,"Halesowen, U31 Cornbow Centre, Hagley St",52.44891675,-2.052034288
1169,1.2,1.2,1169,"Hull, 54 Jameson St",53.74497795,-0.341697842
1684,1.2,1.2,1684,"Ripley, 28 Oxford St",53.04989716,-1.40534949
0996,1.2,1.2,0996,"Kingsbury, 461 Kingsbury Rd",51.5857086,-0.276235599
5782,1.2,1.2,5782,"Leeds, UC Bond St",53.79747,-1.5455
5278,1.2,1.2,5278,"Barnsley, U2 The Co-Op, Wakefield Rd",53.57904838,-1.479289099
3656,1.2,1.2,3656,"Mablethorpe, 37 High St",53.34141774,0.260590076
0979,1.2,1.2,0979,"Fulham, 702 Fulham Rd",51.47443994,-0.207125527
1391,1.2,1.2,1391,"Nottingham, 6 Listergate",52.95145376,-1.148825395
5151,1.4,1.4,5151,"Sandbach, Saxon Cross SS, Congleton Rd",53.15181493,-2.348743295
0703,1.2,1.2,0703,"Wanstead, 85 High St",51.57807443,0.026386587
5501,1.2,1.2,5501,"Coventry, U8B Alvis RP, Holyhead Rd",52.41158,-1.52697
5852,1.2,1.2,5852,"Gillingham, U68 Hempstead Valley SC",51.34162,0.572367
0646,1.2,1.2,0646,"Cheshunt, 53 Turners Hill",51.70141311,-0.034745449
2155,1.2,1.2,2155,"Newcastle, 1 Penn St",54.96316688,-1.630887962
0168,1.2,1.2,0168,"Ealing, 10 The Broadway",51.51374689,-0.303552607
4982,1.2,1.2,4982,"Kirkcaldy, U2 Fife Central RP",56.13445546,-3.199774215
1283,1.2,1.2,1283,"Croydon, 66 High St",51.37146037,-0.100595551
6116,1.2,1.2,6116,"Chester le Street, U10 St Cthbrts Wlk SC",54.857244727784,-1.574149412489
6403,1.2,1.2,6403,Greggs @ Tesco Express Bethnal Green,51.5269201086,-0.061584372698
1796,1.2,1.2,1796,"Doncaster, U16 The Wheatley Hall RP",53.5427321,-1.103684896
3482,1.2,1.2,3482,"Walsall, 7 Sister Dora Buildns, Dgbth Sq",52.58358195,-1.983548035
3528,1.2,1.2,3528,"Blackpool, Oxford Sq",53.80380394,-3.027141148
1515,1.2,1.2,1515,"Ross On Wye, 11 Broad St",51.91505722,-2.583148269
2293,1.2,1.2,2293,"Wirral, U2 Croft RP, Welton Rd",53.34102533,-2.977126139
1846,1.2,1.2,1846,"Nottingham, 4 Clumber St",52.95382738,-1.147381654
0754,1.2,1.2,0754,"Edinburgh, 27A Raeburn Pl",55.95890687,-3.211321522
2339,1.2,1.2,2339,"Stockton, High Newham Rd",54.58331078,-1.350638077
1903,1.2,1.2,1903,"Skegness, 76 Lumley Rd",53.14299272,0.338869886
3894,1.45,1.45,3894,"London, SU45 Ldn Bridge Statn",51.50434808,-0.084154586
1000,1.2,1.2,1000,"Southend, 2 Southchurch Rd",51.54002448,0.71285407
6395,1.45,1.45,6395,"London, U12 Sheldon Sq, Paddington",51.51932757,-0.180484061
5940,1.4,1.4,5940,"Westhill, Arnhall BP Drive Thru",57.14833521,-2.267242123
1295,1.2,1.2,1295,"Hornchurch, 12 Broadway Pde",51.55079471,0.198766708
4994,1.2,1.2,4994,"Glasgow, U1A, 311 Hallhill Rd",55.85778238,-4.135889477
2143,1.2,1.2,2143,"Middlesbrough, Newport Rd",54.57166589,-1.25284
5686,1.45,1.45,5686,"London, U5 Kings Cross Station",51.53183,-0.12464
5393,1.2,1.2,5393,"Merthyr Tydfil, U7 Pant IE",51.76820974,-3.363456313
2456,1.2,1.2,2456,"Troon, 26 Portland St",55.5442078,-4.662954005
5239,1.2,1.2,5239,"Ashbourne, U6.2 Blenheim Rd, Airfield IE",53.00708015,-1.718248337
6045,1.2,1.2,6045,"Castleford, Junction 32 Outlet SC",53.71293,-1.3381
1780,1.2,1.2,1780,"Newcastle, U8 Eldon Sq",54.97512175897,-1.6153788357
0938,1.2,1.2,0938,"Ulverston, 15 Market St",54.19605583,-3.095283004
0312,1.2,1.2,0312,"Pontefract, 18 Market Pl",53.69162298,-1.311026793
0742,1.2,1.2,0742,"Romford, 1 Quadrant Arc",51.57867391,0.181117322
1850,1.2,1.2,1850,"Killingworth, U35 Killingworth SC",55.03642246,-1.5660184
5813,1.2,1.2,5813,"Wimbledon, U1A Plough Lane RP, Plough Ln",51.43104508,-0.184520774
3494,1.2,1.2,3494,"Durham, UO Arnison RC",54.806742919239,-1.581765255041
6229,1.2,1.2,6229,"Mountain Ash, U22B Oxford St",51.68274585,-3.378864303
1016,1.2,1.2,1016,"Reading, 82 Christchurch Rd",51.44267275,-0.955141618
5405,1.2,1.2,5405,"Nottingham, U1 Beechdale RP",52.96058942,-1.191649043
2114,1.2,1.2,2114,"Thornbury, U5 St Marys Way",51.608069273462,-2.525350695619
5281,1.2,1.2,5281,"Bradford, Greengates RP, Harrogate Rd",53.83112248,-1.711721975
3705,1.2,1.2,3705,"Newbury, U2, 125 London Rd",51.40553014,-1.314470867
1368,1.2,1.2,1368,"Loughborough, 5 Market St",52.77115358,-1.20732978
5844,1.2,1.2,5844,"Dundee, U3A Myrekirk Rd",56.475691,-3.046825
3569,1.2,1.2,3569,"Heaton, 209 Chillingham Rd",54.98697058,-1.577290608
0345,1.2,1.2,0345,"Yeadon, 43 High St",53.86624454,-1.683856204
0650,1.2,1.2,0650,"Crouch End, 29 The Broadway",51.57932369,-0.124013257
1942,1.2,1.2,1942,"Ipswich, 51 Westgate St",52.05876831,1.150052134
2397,1.2,1.2,2397,"Bargoed, U5 The Plateau",51.68821777,-3.228920986
0200,1.2,1.2,0200,"Knightswood, 740 Anniesland Rd",55.88614057,-4.359250316
5901,1.4,1.4,5901,"Greenock, 2 Cartsburn St Drive Thru",55.94361949,-4.744633466
5845,1.2,1.2,5845,"Kirkcaldy, U1 Carberry Pl",56.13490623,-3.149025462
3568,1.2,1.2,3568,"Bootle, 156 Parkway, The Strand SC",53.452166358738,-2.99223399776
1555,1.2,1.2,1555,"Broadstairs, U27 Westwood Cross",51.36004088,1.393588669
0344,1.2,1.2,0344,"Hitchin, 28 High St",51.94791875,-0.278573902
0651,1.2,1.2,0651,"Dagenham, 12 Woodward Rd",51.5388827,0.12706443
1943,1.2,1.2,1943,"Colchester, 36 Long Wyre St",51.88842848,0.902529144
5003,1.2,1.2,5003,"Wednesbury, U2A1 Gallagher SP",52.566581,-2.008544
1410,1.2,1.2,1410,"London, 143 The Strand",51.51148729,-0.118429114
2115,1.2,1.2,2115,"Tunbridge Wells, U7 Fountains RP",51.15656467,0.289186617
5280,1.2,1.2,5280,"Boston, Pilgrim Wy",52.95511793,-0.030595274
0082,1.2,1.2,0082,"Peterlee, 24 Yoden Way",54.759889605953,-1.334730226892
3704,1.2,1.2,3704,"Exeter, Marsh Barton TE, U12 Trusham Rd",50.70694747,-3.529586415
1369,1.2,1.2,1369,"Long Eaton, 67 High St",52.89683969,-1.269490117
0981,1.2,1.2,0981,"Greenford, 16 The Broadway",51.52786861,-0.353057842
1386,1.2,1.2,1386,"Kendal, U11 Westmorland Ctr",54.329022044801,-2.746557259023
0597,1.2,1.2,0597,"Cardiff, 1 St Marys St",51.4802354,-3.179545425
5795,1.2,1.2,5795,"Ilkley, 20 Brook St",53.92542,-1.82325
0743,1.2,1.2,0743,"Morpeth, 23 Bridge St",55.16742808,-1.688820469
5541,1.45,1.45,5541,London Gatwick Airport,51.1538,-0.18206
1502,1.2,1.2,1502,"Dundee, 259 Brook St Broughty Ferry",56.46716925,-2.873892483
3495,1.2,1.2,3495,"Newton Aycliffe, U2, Beveridge Wy",54.620787,-1.57073
0256,1.2,1.2,0256,"Keighley, 36 Low St",53.86578187,-1.907915139
5404,1.2,1.2,5404,"Great Yarmouth, UB2A Gapton Hall RP",52.5979136,1.711021515
1294,1.2,1.2,1294,"Aldershot, 33 Wellington St",51.24878408,-0.763853108
0485,1.2,1.2,0485,"Chelmsley Wood, U61 Chelmsly Wood SC",52.48030449,-1.739632115
4995,1.2,1.2,4995,"Luton, 499 Capability Green BP",51.86412193,-0.41018032
5687,1.2,1.2,5687,"Uttoxeter, UR1 Dovefields RP",52.90005,-1.85998
2457,1.2,1.2,2457,"Chineham, U6 Chineham SC",51.284195945787,-1.059734541152
5392,1.2,1.2,5392,"Cumbernauld, 16 St Maurices Gate",55.94466195,-4.031797627
5668,1.2,1.2,5668,"Banbury, U12 Banbury Gateway SP",52.076629,-1.317152
1781,1.2,1.2,1781,"Bradley Stoke, U2 Willow Brook Ctr",51.53515404,-2.548718493
6044,1.45,1.45,6044,"Greggs @ Primark Oxford St, London",51.51652116,-0.131233721
3616,1.2,1.2,3616,"Basingstoke, U7 Houndmills TP",51.27345835,-1.105568826
1514,1.2,1.2,1514,"Kettering, U1 Henson Cl, Telford Way IE",52.41193685,-0.739104051
3529,1.2,1.2,3529,"Exeter, 9 St Thomas Ctr",50.71760493,-3.540455984
2292,1.2,1.2,2292,"Chester, 9 Frodsham St",53.19165276,-2.888504735
0755,1.2,1.2,0755,"Ripon, 18 Market Pl North",54.1367966,-1.523586139
2338,1.2,1.2,2338,"Sunderland, Hylton Riverside RP",54.91780578,-1.433011366
0305,1.2,1.2,0305,"Edgware, 190 Station Rd",51.61406065,-0.275572384
5412,1.2,1.2,5412,"Burton on Trent, U33 Albion Gateway",52.8231116,-1.624073321
0240,1.2,1.2,0240,"Bradford, 43 Bank St",53.79437976,-1.753281989
5042,1.2,1.2,5042,"Minehead, 18 The Parade",51.20577231,-3.477141584
1001,1.2,1.2,1001,"Brentwood, 19 High St",51.62123793,0.304875644
1451,1.2,1.2,1451,"Gosport, 87 High St",50.79494589,-1.119088492
2154,1.2,1.2,2154,"Bridgend, U5A Parc Plaza RO",51.49417873,-3.558909286
0539,1.2,1.2,0539,"Wood Green, 29 High Rd",51.59134245,-0.10466828
1778,1.2,1.2,1778,"Liverpool, 4 Wall St",53.40433339,-2.986775957
1282,1.2,1.2,1282,"Consett, 34 Middle St",54.85230066,-1.833188539
1328,1.2,1.2,1328,"Salisbury, 29 The Maltings",51.06983773,-1.798093662
6402,1.2,1.2,6402,Greggs @ Tesco Express Ealing,51.5122513978,-0.3027158495
1797,1.2,1.2,1797,"Fulham, 411 North End Rd",51.48274436,-0.200125991
2011,1.2,1.2,2011,"Forfar, 25 Castle St",56.64466002,-2.888947595
0186,1.2,1.2,0186,"Glasgow, 1029 Shettleston Rd",55.8518508,-4.169765695
5150,1.2,1.2,5150,"York, U5B Foss Islands RP",53.95900875,-1.070967901
1810,1.2,1.2,1810,"Cardiff, U8 Regent TP",51.47486636,-3.153720767
6286,1.4,1.4,6286,Greggs @ Sainsbury's Bath Rd,51.44157157,-1.060374499
1543,1.2,1.2,1543,"Elgin, U2271K Elgin IE",51.57487801,-1.770475239
5853,1.4,1.4,5853,"Dobshill, Chester Rd SS",53.16381739,-3.039252226
1113,1.2,1.2,1113,"Wigton, 3 King St",54.82504732,-3.161185766
5916,1.2,1.2,5916,"Walker, Church Walk SC",54.97347,-1.54468
1685,1.2,1.2,1685,"Leeds, West Point",53.7963842,-1.553131937
0997,1.2,1.2,0997,"Ham, 430 Richmond Rd",51.43104167,-0.306850345
0094,1.2,1.2,0094,"Stanley, 52 Front St",54.869483011392,-1.699055015346
5296,1.2,1.2,5296,"Edinburgh, U7F Fort Kinnaird RP",55.934337965924,-3.103363384932
5629,1.2,1.2,5629,"Stafford, U14 Queens SP, Silkmore Lane",52.79612,-2.10206
5279,1.2,1.2,5279,"Wombwell, 245 Barnsley Rd",53.530377388747,-1.410869136122
0581,1.2,1.2,0581,"Bournemouth, 60 Old Christchurch Rd",50.7211672,-1.876332955
6005,1.2,1.2,6005,"Sheffield, Penistone Rd North",53.41607,-1.50126
0978,1.2,1.2,0978,"Poplar, Chrisp St, 16 Mkt Sq",51.51275476,-0.015288646
1390,1.2,1.2,1390,"Solihull, 33 High St",52.41367553,-1.778659332
6212,1.2,1.2,6212,"Runcorn, 32 Church St",53.342592535972,-2.732626846302
1884,1.2,1.2,1884,"Glasgow, 183 Shieldhall Rd",55.85512864,-4.331290728
5594,1.2,1.2,5594,"Whitby, 16 Station Sq",54.48521,-0.61568
0329,1.2,1.2,0329,"Stirling, U48 The Thistles SC",56.11704994,-3.936551717
5081,1.2,1.2,5081,"Warndon, U5 Berkeley Way",52.21307377,-2.177882453
1538,1.2,1.2,1538,"Liverpool, U5 Brownlow Hill",53.40583557,-2.967178121
3505,1.2,1.2,3505,"Edinburgh, U6 Edin West RP, Chesser Rd",55.92978841,-3.246408369
5982,1.4,1.4,5982,"Widnes, Moore Lane South",53.3609686,-2.740130421
1168,1.2,1.2,1168,"Richmond, 14 Market Pl",54.4035565,-1.737807642
1492,1.2,1.2,1492,"Manchester, 10 Oxford Rd",53.47295942,-2.239865498
5652,1.2,1.2,5652,Greggs @ Tesco Extra Stockport,53.41278457,-2.157166472
3786,1.2,1.2,3786,"Mansfield, U7 Old Mill Lane IE",53.15738927,-1.187107069
3769,1.2,1.2,3769,"Basingstoke, UB Chiswick Hse",51.266214682373,-1.087377790535
1754,1.2,1.2,1754,"Winton, 379 Wimborne Rd",50.74191091,-1.878834707
0846,1.2,1.2,0846,"Thetford, 13 King St",52.413698525189,0.749000809084
5717,1.2,1.2,5717,"Orpington, U18 Nugent SP, Cray Ave",51.39308,0.11179
5347,1.2,1.2,5347,"Glasgow, U1 Crown Street RP",55.84336921,-4.253692995
2178,1.2,1.2,2178,"Sutton Coldfield, Red Rose SC",52.56247736,-1.823581576
5039,1.2,1.2,5039,"Shepton Mallet, U2 Townsend Rd",51.18900757,-2.549545489
5890,1.2,1.2,5890,"Salford, Media City CP",53.4736883,-2.300177619
1580,1.2,1.2,1580,"Gainsborough, U21 Marshalls Yard",53.39869835,-0.772644807
1095,1.2,1.2,1095,"Morecambe, 22 Glentworth Rd Wst",54.061857137837,-2.852913591841
0684,1.2,1.2,0684,"Enfield, 110 South St",51.64318593,-0.038433111
5486,1.2,1.2,5486,"Blackpool, UB Squires Gate RP",53.78015578,-3.034254735
1646,1.2,1.2,1646,"Prudhoe, 55 Front St",54.96132333,-1.849085068
0057,1.2,1.2,0057,"Spalding, 8 Hall Pl",52.78736217,-0.152217694
5740,1.2,1.2,5740,"Kilmarnock, U10 Glencairn RP",55.598998,-4.497111
1703,1.2,1.2,1703,"Rutherglen, 72 Main St",55.82819843,-4.216617312
3694,1.2,1.2,3694,"Welshpool, 9 Broad St",52.66026383,-3.148009761
6253,1.2,1.2,6253,Greggs @ Tesco Extra Ayr,55.46791,-4.60814
5886,1.2,1.2,5886,"Chesterfield, 450 Sheffield Rd",53.25547,-1.42823
2355,1.2,1.2,2355,"Edinburgh, 74 Stenhouse Pl East",55.9332243,-3.260706604
0692,1.2,1.2,0692,"Southgate, 58 Chase Side",51.6331013,-0.12960971
0738,1.2,1.2,0738,"Coventry, 507 Foleshill Rd",52.42848287,-1.499648852
3817,1.2,1.2,3817,"Glasgow, 2224 London Rd",55.83604238,-4.159152491
3544,1.2,1.2,3544,"Drumchapel, 71 Kinfauns Dr",55.91073881,-4.372164163
1579,1.2,1.2,1579,"Dundee, UL28 Overgate SC",56.460028903974,-2.972917777544
1129,1.2,1.2,1129,"Tranent, 30 High St",55.94432716,-2.952859907
0411,1.2,1.2,0411,"Nelson, Pendle Rise SC",53.8361274,-2.213673851
5613,1.4,1.4,5613,"Colchester, U14 Nrthrn Gatewy Drive Thru",51.92405228979,0.899188688587
0041,1.2,1.2,0041,"Gateshead, Interchange SC",54.962671976753,-1.604236479681
1200,1.2,1.2,1200,"Brighouse, 15 Commercial St",53.70227101,-1.78012955
0942,1.2,1.2,0942,"Cockermouth, 54 Main St",54.66386508,-3.365052205
3682,1.2,1.2,3682,"Edinburgh, 2 Shandwick Pl",55.95015313,-3.208560727
1715,1.2,1.2,1715,"Salisbury, 2 Old George Mall",51.06781,-1.79702
2093,1.2,1.2,2093,"Malvern, 326 Worcester Rd",52.13354812,-2.303116786
5306,1.2,1.2,5306,"Gloucester, Kings Walk SC, 28 Kings Wlk",51.86495041,-2.243133162
5428,1.2,1.2,5428,"Fulwood, U5 Eastway RP",53.79718138,-2.693709188
5582,1.2,1.2,5582,Greggs @ Asda Huyton,53.412556277606,-2.836817182688
2247,1.2,1.2,2247,"Pontypridd, 79A Taff St",51.60224149,-3.340273587
5078,1.2,1.2,5078,"Glasgow, U3 Bchnan Stn, Killermont St",55.865420674501,-4.252010603375
0780,1.2,1.2,0780,"Blackpool, 72 Church St",53.81773213,-3.052582822
1892,1.2,1.2,1892,"Syston, 1286 Melton Rd",52.69860244,-1.073892517
1484,1.2,1.2,1484,"Derby, 830 Osmaston Rd",52.8906679,-1.452351014
5994,1.2,1.2,5994,Greggs @ Tesco Stockton,54.5926,-1.3536
5097,1.2,1.2,5097,"Sunderland, U7 The Green",54.91999922,-1.401941171
3840,1.2,1.2,3840,"Swansea, 63 Alexandra Rd",51.6248597,-3.942358102
2302,1.2,1.2,2302,"London, 111 Great Portland St",51.51976192,-0.14274441
0915,1.2,1.2,0915,"Paddock Wood, 43 Commercial Rd",51.1806089,0.388492242
4956,1.2,1.2,4956,"Woodley, 136 Crockhamwell Rd",51.45268133,-0.905208525
5351,1.2,1.2,5351,"Wrexham, U28 The Brdgwter Ctr, Wrxham IE",53.03898156,-2.927806061
0503,1.2,1.2,0503,"Perry Barr, 97 Thornbridge Ave",52.53568332,-1.905836152
0850,1.2,1.2,0850,"Wisbech, U11, 21-23 Horsefair",52.66607,0.1613
1742,1.2,1.2,1742,"Derby, USU164 Intu Derby",52.9187022,-1.4727554
1312,1.2,1.2,1312,"Great Yarmouth, 182 King St",52.60740933,1.726857921
1365,1.2,1.2,1365,"Edinburgh, 9 South Clerk St",55.941601461572,-3.181268694082
3708,1.2,1.2,3708,"Accrington, 2 Broadway",53.75384696,-2.36479334
1735,1.2,1.2,1735,"Yeovil, 11 Middle St",50.94157364,-2.631262565
2119,1.2,1.2,2119,"Telford, U7 Birchfield Way",52.67664036,-2.481188752
0431,1.2,1.2,0431,"Salford, 104 Mather Way",53.48940309,-2.287046735
4921,1.2,1.2,4921,"Rhyl, U8 Marina Quay, West Pde",53.31490136,-3.504336673
0061,1.2,1.2,0061,"Houghton Regis, 3 Bedford Sq",51.9048988,-0.51969151
5263,1.2,1.2,5263,"Barry Island, 1 Paget Road",51.39167304,-3.276062305
0962,1.2,1.2,0962,"Bromley, 15 High St",51.40072486,0.017138037
0348,1.2,1.2,0348,"Ashton Under Lyne, 34 Staveleigh Way",53.488761207427,-2.095889161749
5849,1.2,1.2,5849,"Colchester, UF Stane RP, Westrn Approach",51.888703655003,0.826022217197
0173,1.2,1.2,0173,"Surbiton, 77 Victoria Rd",51.39250066,-0.305535646
0489,1.2,1.2,0489,"Coventry, 137 Daventry Rd",52.39448967,-1.506596927
5721,1.2,1.2,5721,"Harwich, U1A Harwich Gateway RP",51.9412,1.25814
0870,1.2,1.2,0870,"Chesham, 49 High St",51.70559125,-0.612227357
1762,1.2,1.2,1762,"Harlow, Edinburgh Way",51.78593584,0.118265278
1298,1.2,1.2,1298,"Letchworth, 22 East Cheap",51.9783608,-0.22821105
1277,1.2,1.2,1277,"Northampton, 51 Abington St",52.23881042,-0.892370978
0036,1.2,1.2,0036,"Leam Lane, U2 Fewster Sq",54.94070571,-1.545042379
4976,1.2,1.2,4976,"Stafford, U4A Riverside, Bridge St",52.8048103,-2.1123981
0466,1.2,1.2,0466,"Birmingham, 164 Alum Rock Rd",52.48941843,-1.852258583
6361,1.2,1.2,6361,"Whiteley, UD3B Whiteley SC, Whitleley Wy",50.884484386357,-1.245360642989
1918,1.2,1.2,1918,"Thornaby, U2 The Pavillion SC",54.539084011066,-1.290767457039
1324,1.2,1.2,1324,"Wallsend, 28 Segedunum Way, The Forum SC",54.991354200692,-1.53572822505
1774,1.2,1.2,1774,"Openshaw, U7 Lime Sq",53.47408057,-2.164717518
0866,1.2,1.2,0866,"Brentwood, 68 High St",51.61985623,0.300823483
5737,1.2,1.2,5737,"Staffordshire, U6 Keele University",53.0018268,-2.2732442
0535,1.2,1.2,0535,"Birmingham, Radleys, 399 Sheldon Hth Rd",52.46441608,-1.777087108
5367,1.2,1.2,5367,"Brighton, 96 Queens Rd",50.82703491,-0.141633355
0165,1.2,1.2,0165,"Edinburgh, 400 Morningside Rd",55.92578217,-3.20958713
0470,1.2,1.2,0470,"Bedworth, 32 All Saints Sq",52.48005718963,-1.473228429531
5388,1.2,1.2,5388,"Kendal, 8 Stricklandgate",54.327957341107,-2.747502535713
5672,1.2,1.2,5672,"Newport, U19A Newport RP",51.577007,-2.944724
4960,1.2,1.2,4960,"Neath Abbey, U2 New Rd",51.66305361,-3.826972222
1261,1.2,1.2,1261,"Manchester, 175 Arndale SC",53.4831,-2.24028
0309,1.2,1.2,0309,"Normanton, 53 High St",53.700169044538,-1.418498524231
2334,1.2,1.2,2334,"Manchester, 93 Piccadilly",53.48023149,-2.233479166
3876,1.2,1.2,3876,"Staines, U1 The Causeway",51.43444159,-0.529300664
3525,1.2,1.2,3525,"Wolverhampton, 3 The Gallery, Mander CTR",52.584979,-2.128396
5808,1.4,1.4,5808,"Wellingbrgh, Denington Rd Drive Thru",52.29530005,-0.686777891
2271,1.2,1.2,2271,"Barnet, 134 High St",51.6550799,-0.201549167
0562,1.2,1.2,0562,"Willenhall, 83 Stafford St",52.5849503,-2.056203906
5760,1.2,1.2,5760,"Shrewsbury, 27 Pride Hill",52.70875256,-2.75241031
0098,1.2,1.2,0098,"Hylton Castle, 42 Chiswick Sq",54.92262324,-1.451445136
1723,1.2,1.2,1723,"Bridgend, U1 Triangle SC",51.50710671,-3.560431849
1373,1.2,1.2,1373,"Banbury, 17 High St",52.061271864906,-1.336733382537
1666,1.2,1.2,1666,"Sheffield, U41 Crystal Peaks",53.3413423,-1.352499116
5275,1.2,1.2,5275,"Tredegar, U12B Gwent SC",51.774938,-3.2452886
4937,1.2,1.2,4937,"Preston, U6 Sharoe Green Lane",53.79230045,-2.706560712
3572,1.2,1.2,3572,"Yateley, 117 Reading Rd",51.34195043,-0.82954615
3821,1.2,1.2,3821,"Colchester, 58 St Christopher Rd",51.90297226,0.929127001
2363,1.2,1.2,2363,"Witney, U4 Welch Way",51.78644215,-1.485913569
5449,1.2,1.2,5449,"Blackwood, U13 St Davids IE, Pinewd Crt",51.67011704,-3.219128865
5019,1.2,1.2,5019,"Plymouth, 30 Royal Pde",50.37050867,-4.140826129
6265,1.2,1.2,6265,"Bransholme, U21 North Point SC",53.78659,-0.32049
0519,1.2,1.2,0519,"Lichfield, 9 Bakers Ln",52.683287907384,-1.826039144187
1758,1.2,1.2,1758,"Glasgow, 429 Alexandra Pde",55.86429672,-4.220992995
6137,1.2,1.2,6137,Greggs @ Tesco Failsworth,53.50854,-2.15856
1922,1.2,1.2,1922,"Edinburgh, 126 Lothian Rd",55.9454941,-3.205719119
5598,1.2,1.2,5598,"Penrith, 5 Devonshire St",54.664200664365,-2.752815453364
1888,1.2,1.2,1888,"Risca, 43A Tredegar St",51.60821246,-3.100966818
1021,1.2,1.2,1021,"Southall, 43 The Broadway",51.51129867,-0.37789012
5961,1.2,1.2,5961,"Barry, 139-141 Holton Road",51.40627024,-3.265289799
1534,1.2,1.2,1534,"Chelmsford, U5C Interchange",51.736080807677,0.466485105764
3677,1.2,1.2,3677,"Mexborough, 26 High St",53.49351873,-1.289054144
2089,1.2,1.2,2089,"Stratford, U3 Westfield SC",51.5435545,-0.0066512
5936,1.2,1.2,5936,"Gloucester, 17 Southgate St",51.86465581,-2.24650371
5035,1.2,1.2,5035,"Colchester, Stanway RP",51.87808,0.84542
0667,1.2,1.2,0667,"Enfield, 188 Hertford Rd",51.65713466,-0.047546232
5873,1.2,1.2,5873,"Liverpool, U14 Central Station, Rnlgh St",53.4047977,-2.98
3661,1.2,1.2,3661,"Birmingham, 41 High St",52.47929612,-1.894432995
6033,1.2,1.2,6033,"Denton, U2A Crownpoint SP",53.457855,-2.118272
0558,1.2,1.2,0558,"Birmingham, 144 Weoley Castle Rd",52.43728471,-1.971069798
3724,1.2,1.2,3724,"Redditch, 8 Kingfisher Wlk",52.30606142,-1.943651305
5189,1.2,1.2,5189,"Newport, U3 Langland Way",51.57478755,-2.963981523
0221,1.2,1.2,0221,"Saltcoats, 29 Dockhead St",55.633043964618,-4.787075259514
5920,1.2,1.2,5920,"Cardiff, U1 Parkfield House",51.49863002,-3.193746365
1125,1.2,1.2,1125,"Maidenhead, 43 High St",51.52275103,-0.720098438
5865,1.2,1.2,5865,"Birmingham, U9B3 The Fort SP",52.5086642,-1.82370298
5536,1.2,1.2,5536,"Wigan, UH Robin RP",53.5451546,-2.6538999
0364,1.2,1.2,0364,"Burnley, 69 The Mall, Charter Wlk SC",53.79016947,-2.244240485
5648,1.2,1.2,5648,"Milton Keynes, U12 The Mall, Kingston SC",52.0359,-0.68764
2027,1.2,1.2,2027,"Hyde, 14 Clarendon Sq",53.450932763717,-2.07815603158
5218,1.2,1.2,5218,"Edinburgh, U2, 72 Gilmerton Dykes St",55.90354541,-3.138412333
6064,1.2,1.2,6064,Greggs @ Tesco Pontyclun,51.53443,-3.37706
0919,1.2,1.2,0919,"London Victoria, U29 Palmer St",51.49823929,-0.135258927
6434,1.2,1.2,6434,Greggs @ Tesco Bar Hill,52.254920012329,0.01863158799
6121,1.2,1.2,6121,"Manchester, 82 Market St",53.482230182554,-2.240453447315
3773,1.2,1.2,3773,"Coventry, U1d Warwickshire SP, Kynner Wy",52.398327,-1.433600753
